City_ID,City,Lat,Lng,Max Temp,Humidity,Cloudiness,Wind Speed,Country,Date
0,cabo san lucas,22.8909,-109.9124,33.61,66,75,5.66,MX,1691259346
1,keflavik,64.0049,-22.5624,13.95,94,100,6.69,IS,1691260053
2,yangquan,37.8575,113.5633,22.83,93,11,0.88,CN,1691260053
3,grytviken,-54.2811,-36.5092,-5.02,82,90,5.3,GS,1691260054
4,qaqortoq,60.7167,-46.0333,9.23,74,11,1.43,GL,1691260054
5,adamstown,-25.066,-130.1015,18.94,60,18,5.38,PN,1691260054
6,puerto natales,-51.7236,-72.4875,5.5,85,98,9.89,CL,1691259817
7,nikol'sk,53.7189,46.0712,21.76,74,1,2.5,RU,1691260055
8,port-aux-francais,-49.35,70.2167,2.32,72,99,14.49,TF,1691260055
9,imbituba,-28.24,-48.6703,24.36,82,31,3.27,BR,1691260055
10,palu,-0.8917,119.8707,24.12,96,17,1.56,ID,1691260055
11,tiksi,71.6872,128.8694,2.0,84,100,3.44,RU,1691260055
12,papatowai,-46.5619,169.4708,5.4,84,80,3.59,NZ,1691260055
13,tazovsky,67.4667,78.7,15.02,56,7,2.84,RU,1691259882
14,tralee,52.2704,-9.7026,15.07,83,13,4.74,IE,1691260056
15,minas de marcona,-15.2119,-75.1103,18.6,54,11,3.58,PE,1691260056
16,jamestown,42.097,-79.2353,24.45,64,75,4.12,US,1691259964
17,geraldton,-28.7667,114.6,9.23,93,83,3.09,AU,1691260057
18,isangel,-19.55,169.2667,21.06,94,20,0.0,VU,1691260057
19,menongue,-14.6585,17.691,15.87,30,0,2.28,AO,1691260057
20,rhoose,51.3882,-3.3543,17.23,68,75,8.23,GB,1691259932
21,athens,37.9795,23.7162,32.61,47,20,4.02,GR,1691259510
22,waitangi,-43.9535,-176.5597,6.57,80,97,3.13,NZ,1691260058
23,ushuaia,-54.8,-68.3,3.81,81,100,9.77,AR,1691260058
24,urangan,-25.3,152.9,17.72,69,1,3.77,AU,1691260058
25,bredasdorp,-34.5322,20.0403,10.2,92,69,1.93,ZA,1691260058
26,nova sintra,14.8667,-24.7167,22.84,78,14,6.22,CV,1691260059
27,mugia,43.1041,-9.2179,24.95,89,38,7.86,ES,1691260059
28,tupiza,-21.45,-65.7167,21.81,5,0,2.57,BO,1691260060
29,tuymazy,54.6067,53.7097,22.51,66,53,1.09,RU,1691260060
30,blackmans bay,-43.0167,147.3167,8.62,86,85,2.59,AU,1691260061
31,bethel,41.3712,-73.414,29.01,58,0,4.63,US,1691260061
32,thompson,55.7435,-97.8558,18.09,82,75,5.66,CA,1691260061
33,hamilton,39.1834,-84.5333,30.89,62,0,4.12,US,1691259468
34,aldinga beach,-35.2793,138.4604,9.86,73,84,1.84,AU,1691260061
35,kogalym,62.2654,74.4791,18.37,49,4,4.19,RU,1691260062
36,maragogi,-9.0122,-35.2225,25.86,75,52,4.33,BR,1691260062
37,acajutla,13.5928,-89.8275,32.18,59,19,3.76,SV,1691260062
38,obera,-27.4871,-55.1199,31.35,24,0,2.59,AR,1691260062
39,tatarsk,55.219,75.9828,19.16,83,97,1.03,RU,1691260062
40,harstad,68.799,16.5293,13.42,80,57,4.92,NO,1691260063
41,vorgashor,67.5833,63.95,18.17,54,0,2.52,RU,1691260063
42,kurumkan,54.3,110.3,17.47,76,100,1.3,RU,1691260063
43,utrik,11.2278,169.8474,27.96,68,100,8.07,MH,1691260063
44,edinburgh of the seven seas,-37.0676,-12.3116,13.35,79,16,15.49,SH,1691260063
45,wailua homesteads,22.0669,-159.378,26.24,87,75,3.09,US,1691260064
46,tambura,5.6,27.4667,20.32,95,100,0.52,SS,1691260064
47,guerrero negro,27.9769,-114.0611,25.71,53,30,4.62,MX,1691260064
48,happy valley-goose bay,53.3168,-60.3315,24.17,46,75,5.14,CA,1691260064
49,katsuura,35.1333,140.3,26.26,88,0,4.15,JP,1691260065
50,sault ste. marie,46.5168,-84.3333,24.31,43,0,2.06,CA,1691259913
51,cape coast,5.1053,-1.2466,24.56,90,55,4.56,GH,1691260065
52,miracema do tocantins,-9.5618,-48.3967,37.47,22,34,2.9,BR,1691260065
53,aasiaat,68.7098,-52.8699,1.9,94,75,2.81,GL,1691260065
54,artigas,-30.4,-56.4667,26.29,59,49,4.97,UY,1691260066
55,udachny,66.4167,112.4,10.25,75,99,5.18,RU,1691260066
56,margaret river,-33.95,115.0667,8.68,81,100,1.78,AU,1691260066
57,gazojak,41.1875,61.4036,32.59,24,88,4.43,TM,1691260066
58,ghadamis,30.1337,9.5007,38.53,20,0,7.79,LY,1691260066
59,invercargill,-46.4,168.35,6.68,88,88,1.34,NZ,1691260067
60,bilibino,68.0546,166.4372,4.26,95,100,2.57,RU,1691260067
61,bagno a ripoli,43.7511,11.3225,24.18,67,40,4.63,IT,1691260067
62,severnoye,56.3491,78.3619,17.04,70,88,3.69,RU,1691260067
63,nar'yan-mar,67.6713,53.087,21.19,74,51,3.22,RU,1691260067
64,klyuchi,52.2667,79.1667,19.99,66,80,1.39,RU,1691260067
65,olonkinbyen,70.9221,-8.7187,3.8,92,100,9.91,SJ,1691260068
66,neftekamsk,56.092,54.2703,20.26,84,29,2.51,RU,1691260068
67,llanes,43.4198,-4.7549,20.83,85,20,5.6,ES,1691260068
68,stanley,54.868,-1.6985,13.01,82,40,5.14,GB,1691260068
69,sapri,40.0751,15.6296,21.12,83,77,3.4,IT,1691260068
70,whitehorse,60.7161,-135.0538,20.43,43,75,6.17,CA,1691259832
71,petauke,-14.2426,31.3253,20.91,47,70,4.35,ZM,1691260069
72,selfoss,63.9331,-20.9971,13.91,79,96,4.75,IS,1691260069
73,paradise,36.0972,-115.1467,38.59,12,0,2.57,US,1691259834
74,san pedro de ycuamandiyu,-24.0917,-57.0764,35.3,19,0,2.0,PY,1691260069
75,radashkovichy,54.1551,27.2424,23.75,75,67,4.4,BY,1691260070
76,kabatas,40.75,37.45,20.16,97,0,1.24,TR,1691260070
77,masterton,-40.9597,175.6575,3.27,95,46,0.89,NZ,1691260070
78,mount isa,-20.7333,139.5,9.87,76,0,0.0,AU,1691260070
79,howard springs,-12.497,131.047,23.95,43,13,2.68,AU,1691260070
80,west island,-12.1568,96.8225,24.99,88,75,7.72,CC,1691260071
81,ziro,27.6333,93.8333,15.99,100,100,0.71,IN,1691260071
82,punta arenas,-53.15,-70.9167,4.68,92,100,12.71,CL,1691260071
83,talnakh,69.4865,88.3972,16.05,52,5,0.76,RU,1691260071
84,kualakapuas,-3.0091,114.3876,23.43,93,21,1.16,ID,1691260071
85,la'ie,21.6477,-157.9253,27.98,74,42,5.08,US,1691260072
86,port mathurin,-19.6833,63.4167,22.81,74,43,11.53,MU,1691260072
87,iqaluit,63.7506,-68.5145,10.85,81,20,2.57,CA,1691259982
88,badger,64.8,-147.5333,21.32,67,100,1.54,US,1691260072
89,kone,-21.0595,164.8658,16.62,88,29,2.52,NC,1691260072
90,olinda,-8.0089,-34.8553,26.85,74,40,7.2,BR,1691260073
91,shizunai-furukawacho,42.3339,142.3669,20.59,97,99,3.7,JP,1691260073
92,saint-paul,-21.0096,55.2707,22.06,91,48,0.45,RE,1691260073
93,sisimiut,66.9395,-53.6735,7.86,73,17,3.34,GL,1691260073
94,groningen,53.25,6.75,14.46,93,75,2.06,NL,1691260073
95,rio grande,-32.035,-52.0986,19.06,61,0,3.31,BR,1691260074
96,xinzo de limia,42.0635,-7.7246,26.93,32,0,4.62,ES,1691260074
97,polyarnyy,69.1989,33.4478,11.04,94,100,6.26,RU,1691260074
98,puerto ayora,-0.7393,-90.3518,28.98,91,46,2.68,EC,1691260074
99,port elizabeth,-33.918,25.5701,20.05,82,0,1.54,ZA,1691260074
100,ust-nera,64.5667,143.2,14.45,51,97,1.82,RU,1691260075
101,port-cartier,50.0334,-66.8654,15.12,92,100,2.85,CA,1691260075
102,tofol,5.3248,163.0078,27.98,70,61,0.97,FM,1691260075
103,albany,42.6001,-73.9662,26.3,60,42,0.45,US,1691260075
104,sicuani,-14.2694,-71.2261,14.73,25,9,2.83,PE,1691260075
105,lihue,21.9789,-159.3672,26.58,82,75,3.09,US,1691260076
106,colonia,50.9333,6.95,17.46,83,99,1.54,DE,1691259868
107,port blair,11.6667,92.75,28.02,83,40,4.12,IN,1691260076
108,primero de mayo,-32.2552,-58.4228,20.86,56,1,4.55,AR,1691260076
109,bulgan,48.8125,103.5347,13.41,88,96,1.73,MN,1691260077
110,babayevo,59.3936,35.9371,18.31,71,52,1.73,RU,1691260077
111,baiti,13.745,-14.7482,34.28,53,85,3.27,SN,1691260077
112,sitka,57.0531,-135.33,19.94,73,40,0.0,US,1691260059
113,flying fish cove,-10.4217,105.6791,24.82,88,100,6.69,CX,1691260077
114,mil'kovo,55.6078,37.7956,25.23,59,9,1.27,RU,1691260078
115,touros,-5.1989,-35.4608,27.99,66,92,8.18,BR,1691260078
116,san luis de la loma,17.2706,-100.8939,31.33,56,100,2.07,MX,1691260078
117,kutum,14.2,24.6667,22.19,78,77,7.45,SD,1691260078
118,santiago de cao,-7.9589,-79.2392,24.07,69,91,5.66,PE,1691260078
119,labrador city,52.9463,-66.9114,15.95,82,100,2.57,CA,1691260079
120,chibougamau,49.9168,-74.3659,20.79,49,75,5.14,CA,1691260079
121,st. john's,47.5649,-52.7093,19.75,73,75,5.14,CA,1691259938
122,new norfolk,-42.7826,147.0587,9.28,87,97,1.41,AU,1691260079
123,whakatane,-37.9585,176.9854,3.21,96,9,2.77,NZ,1691260079
124,ciacova,45.5081,21.1286,22.39,70,36,6.25,RO,1691260080
125,tura,25.5198,90.2201,24.28,98,100,2.18,IN,1691260080
126,port moresby,-9.4431,147.1797,20.68,88,20,1.54,PG,1691260080
127,shalqar,47.8333,59.6,29.65,30,57,6.94,KZ,1691260080
128,mushabani,22.5167,86.45,26.08,83,100,4.88,IN,1691260080
129,isafjordur,66.0755,-23.124,12.02,62,40,2.57,IS,1691260081
130,ciudad madero,22.2667,-97.8333,32.25,66,40,4.62,MX,1691260081
131,hawaiian paradise park,19.5933,-154.9731,26.05,90,75,2.06,US,1691260077
132,al jawf,29.5,38.75,31.55,12,0,4.4,SA,1691260081
133,yellowknife,62.456,-114.3525,20.29,42,75,1.54,CA,1691260081
134,hede,33.7681,120.2517,25.14,86,1,2.58,CN,1691260082
135,qarazhal,48.0078,70.7903,26.81,35,89,3.79,KZ,1691260082
136,santa ana,33.7456,-117.8678,33.61,61,0,2.06,US,1691260075
137,weno,7.4515,151.8468,26.97,94,100,3.09,FM,1691260083
138,valparaiso,-33.0393,-71.6273,15.56,91,100,5.66,CL,1691260083
139,amboise,47.4125,0.9827,20.3,67,75,7.72,FR,1691259984
140,loanda,-8.8368,13.2343,22.0,83,75,4.12,AO,1691260084
141,flin flon,54.7682,-101.865,22.91,49,75,5.66,CA,1691260084
142,zaysan,47.4667,84.8667,22.5,39,22,2.87,KZ,1691260084
143,kabompo,-13.5927,24.2008,17.36,34,0,2.71,ZM,1691260084
144,piton saint-leu,-21.2196,55.3151,20.06,73,20,8.75,RE,1691260085
145,vilyuchinsk,52.9306,158.4028,13.15,87,0,3.72,RU,1691260085
146,vila franca do campo,37.7167,-25.4333,23.23,68,100,2.78,PT,1691260085
147,igarka,67.4667,86.5833,15.03,60,6,2.02,RU,1691260085
148,nantucket,41.2835,-70.0995,28.08,70,20,6.69,US,1691260085
149,vitoria da conquista,-14.8661,-40.8394,26.78,24,0,3.75,BR,1691260086
150,al kharj,24.155,47.3346,37.32,7,66,4.37,SA,1691260086
151,crane,31.3974,-102.3501,36.6,23,1,7.56,US,1691260086
152,hermanus,-34.4187,19.2345,11.56,89,88,2.23,ZA,1691260086
153,carnarvon,-24.8667,113.6333,18.79,80,1,3.56,AU,1691260086
154,college,64.8569,-147.8028,21.37,65,40,1.54,US,1691259953
155,el granada,37.5027,-122.4694,29.13,72,20,2.57,US,1691260087
156,mweka,-4.85,21.5667,25.45,31,0,0.6,CD,1691260087
157,swift current,50.2834,-107.8014,24.45,35,40,6.69,CA,1691260087
158,avarua,-21.2078,-159.775,22.03,78,100,3.6,CK,1691260087
159,taulaga,-11.0553,-171.0883,27.52,80,79,6.56,AS,1691260088
160,kodiak,57.79,-152.4072,11.73,94,100,2.57,US,1691260088
161,dudinka,69.4058,86.1778,13.68,60,2,2.94,RU,1691260088
162,port alfred,-33.5906,26.891,20.16,54,0,3.52,ZA,1691260088
163,saipan,15.1355,145.701,28.39,100,0,1.54,MP,1691260088
164,petropavlovsk-kamchatsky,53.0452,158.6483,12.33,94,75,2.0,RU,1691260089
165,anadyr,64.75,177.4833,11.28,87,75,10.0,RU,1691260089
166,puerto gaitan,4.3133,-72.0816,29.07,69,92,4.51,CO,1691260089
167,amble,55.3333,-1.5833,14.42,77,100,4.12,GB,1691259873
168,samana,19.2056,-69.3369,34.12,66,40,4.12,DO,1691260090
169,castillos,-34.1667,-53.8333,15.51,46,1,3.14,UY,1691260090
170,kavaratti,10.5669,72.642,28.18,77,83,8.54,IN,1691260090
171,kamiiso,41.8167,140.65,23.47,96,93,0.69,JP,1691260090
172,zuwarah,32.9312,12.082,26.25,55,2,3.41,LY,1691259906
173,san antonio de pale,-1.4014,5.6325,22.76,77,60,5.55,GQ,1691260091
174,usinsk,65.9939,57.5281,21.99,62,66,4.4,RU,1691260091
175,chilecito,-29.1619,-67.4974,22.09,27,0,2.1,AR,1691260091
176,sassandra,4.95,-6.0833,25.08,87,77,3.6,CI,1691260091
177,dumfries,38.5676,-77.328,31.71,60,0,5.14,US,1691260092
178,ad dabbah,18.05,30.95,36.56,31,99,6.09,SD,1691260092
179,keren,15.7778,38.4581,22.35,78,89,3.8,ER,1691260092
180,kievka,50.2619,71.5514,20.26,65,65,1.61,KZ,1691260092
181,dapa,9.7594,126.0531,28.03,75,84,2.51,PH,1691260092
182,pamandzi,-12.7967,45.2794,22.88,83,0,1.03,YT,1691260093
183,adrar,20.5022,-10.0711,41.4,7,22,5.43,MR,1691260093
184,kruisfontein,-34.0033,24.7314,18.82,40,5,2.19,ZA,1691260093
185,concepcion,-36.827,-73.0498,12.89,82,75,4.12,CL,1691260093
186,fale old settlement,-9.3852,-171.2468,27.98,77,23,6.04,TK,1691260093
187,siwa oasis,29.2041,25.5195,37.67,11,0,4.75,EG,1691260094
188,archidona,37.0965,-4.3887,24.91,31,0,3.38,ES,1691260094
189,manziana,42.1321,12.1264,21.7,80,51,3.61,IT,1691260094
190,haiku-pauwela,20.9219,-156.3051,26.01,64,20,8.23,US,1691260094
191,crucecita,-28.95,-58.9833,33.62,26,0,5.49,AR,1691260094
192,behbahan,30.5959,50.2417,36.59,21,4,2.76,IR,1691260095
193,bull savanna,17.8868,-77.5902,31.68,60,1,7.68,JM,1691260095
194,kharp,66.8014,65.8081,19.16,58,0,2.79,RU,1691260095
195,hammerfest,70.6634,23.6821,12.25,82,75,6.17,NO,1691260095
196,rouissat,31.9243,5.3502,35.04,20,0,5.14,DZ,1691260095
197,fort bragg,35.139,-79.006,32.58,56,20,3.6,US,1691259619
198,kyosai,34.8503,128.5886,26.98,83,1,4.51,KR,1691260096
199,nadym,65.5333,72.5167,19.63,46,27,3.13,RU,1691260096
200,hithadhoo,-0.6,73.0833,27.56,75,99,2.85,MV,1691260097
201,egilsstadir,65.2653,-14.3948,11.95,58,40,5.66,IS,1691260097
202,magdagachi,53.45,125.8,12.29,54,2,1.05,RU,1691260097
203,sinabang,2.4803,96.3801,26.91,84,95,1.25,ID,1691260097
204,spring creek,40.7266,-115.5859,25.78,33,1,1.16,US,1691260097
205,susuman,62.7833,148.1667,5.9,74,12,1.25,RU,1691260097
206,kangding,30.0513,101.9603,15.99,99,98,0.54,CN,1691260098
207,katabu,-4.9333,122.5167,24.29,75,2,3.18,ID,1691260098
208,alice springs,-23.7,133.8833,8.75,81,0,3.09,AU,1691260098
209,benjamin constant,-4.3831,-70.0311,31.07,66,40,2.06,BR,1691260098
210,nelson bay,-32.7167,152.15,16.11,96,72,3.58,AU,1691260099
211,tyuratam,45.6507,63.3156,27.09,43,30,2.44,KZ,1691260099
212,tolanaro,-25.0319,46.9987,20.04,73,20,7.2,MG,1691260099
213,nemuro,43.3236,145.575,14.43,97,100,2.48,JP,1691260099
214,mccook,40.2019,-100.6257,29.03,57,0,5.66,US,1691260099
215,envira,-7.3,-70.2167,36.04,31,53,1.42,BR,1691260100
216,carolina beach,34.0352,-77.8936,29.49,81,86,2.3,US,1691260100
217,bay roberts,47.5999,-53.2648,19.95,79,67,1.79,CA,1691260100
218,romny,50.751,33.4747,24.24,63,11,3.94,UA,1691260100
219,comendador,18.8775,-71.7028,33.68,47,6,4.83,DO,1691260100
220,ardakan,32.31,54.0175,32.71,12,0,1.67,IR,1691260101
221,louis trichardt,-23.0439,29.9032,14.4,49,72,1.8,ZA,1691260101
222,vanino,49.0869,140.2543,12.61,93,100,1.23,RU,1691260101
223,suntar,62.1444,117.6319,15.98,60,87,2.64,RU,1691260101
224,sao joao da barra,-21.6403,-41.0511,27.05,71,6,4.59,BR,1691260101
225,atafu village,-8.5421,-172.5159,27.91,78,39,5.58,TK,1691260102
226,iquique,-20.2208,-70.1431,19.02,70,2,2.85,CL,1691260102
227,holualoa,19.6228,-155.9522,24.91,78,20,2.57,US,1691260102
228,ilulissat,69.2167,-51.1,9.01,71,20,2.57,GL,1691260102
229,prado,-17.3411,-39.2208,24.64,57,2,3.25,BR,1691260102
230,la concepcion,8.5167,-82.6167,33.66,60,35,2.85,PA,1691260103
231,kudahuvadhoo,2.6708,72.8944,28.33,75,100,4.5,MV,1691260103
232,karratha,-20.7377,116.8463,23.23,43,4,3.41,AU,1691260103
233,ribeira grande,38.5167,-28.7,24.22,73,75,2.68,PT,1691260103
234,salinopolis,-0.6136,-47.3561,29.29,69,14,5.35,BR,1691260103
235,yuzhno-kurilsk,44.0306,145.8556,13.2,97,100,4.15,RU,1691260104
236,arauca,7.0847,-70.7591,30.98,66,40,1.03,CO,1691260104
237,taro,-8.3862,115.28,22.0,98,85,0.83,ID,1691260104
238,ardestan,33.3761,52.3694,31.47,13,0,4.65,IR,1691260105
239,humaita,-7.5061,-63.0208,38.34,24,22,1.55,BR,1691260105
240,sao felix do xingu,-6.6447,-51.995,34.9,28,64,2.42,BR,1691260105
241,mont-dore,-22.2833,166.5833,20.56,99,69,4.81,NC,1691260106
242,hadibu,12.65,54.0333,25.9,78,25,7.55,YE,1691260106
243,namibe,-15.1961,12.1522,18.5,83,0,1.33,AO,1691260106
244,byron bay,-28.65,153.6167,9.84,84,35,1.29,AU,1691260106
245,el colomo,19.05,-104.25,29.99,54,100,2.72,MX,1691260106
246,waakirchen,47.7725,11.6732,14.29,96,100,1.6,DE,1691260107
247,huitan,15.1,-91.6167,20.43,43,44,2.74,GT,1691260107
248,necochea,-38.5473,-58.7368,13.22,46,97,5.68,AR,1691260107
249,porto seguro,-16.4497,-39.0647,26.29,57,40,4.63,BR,1691260107
250,walvis bay,-22.9575,14.5053,13.53,88,1,1.03,NA,1691260107
251,revda,56.801,59.9303,19.02,77,92,1.74,RU,1691260108
252,porto novo,6.4965,2.6036,25.9,82,96,3.87,BJ,1691260108
253,challapata,-18.9,-66.7667,13.34,14,0,4.0,BO,1691260108
254,marataizes,-21.0433,-40.8244,23.55,70,10,4.14,BR,1691260001
255,nanning,22.8167,108.3167,27.25,93,98,1.59,CN,1691260109
256,kargil,34.5667,76.1,17.63,49,48,3.04,IN,1691260109
257,hovd,48.0056,91.6419,20.43,38,82,2.59,MN,1691260109
258,gatesville,31.4352,-97.7439,39.97,31,0,3.6,US,1691260109
259,sabzevar,36.2126,57.6819,30.83,30,2,6.09,IR,1691260109
260,thunder bay,48.4001,-89.3168,23.99,50,20,4.63,CA,1691259938
261,codrington,-38.2667,141.9667,8.95,80,94,1.98,AU,1691260110
262,klaksvik,62.2266,-6.589,12.51,74,99,0.89,FO,1691260110
263,poronaysk,49.2167,143.1167,13.59,93,100,1.22,RU,1691260110
264,georgetown,5.4112,100.3354,27.96,92,20,1.54,MY,1691260014
265,gua musang,4.8823,101.9644,23.15,98,23,0.55,MY,1691260111
266,hasaki,35.7333,140.8333,27.39,90,0,4.93,JP,1691260111
267,san ignacio,17.1561,-89.0714,33.08,62,75,2.06,BZ,1691260111
268,uturoa,-16.7333,-151.4333,25.75,74,12,3.24,PF,1691260111
269,constantia,44.1833,28.65,24.38,82,0,4.35,RO,1691259984
270,gunnedah,-30.9833,150.25,8.52,83,47,2.1,AU,1691260112
271,moree,-29.4667,149.85,10.22,61,45,2.68,AU,1691259916
272,iskateley,67.6803,53.1512,21.19,74,58,3.24,RU,1691260112
273,bereznik,62.8551,42.7072,16.77,90,2,2.16,RU,1691260112
274,anori,-3.7728,-61.6442,37.13,29,1,1.58,BR,1691260112
275,akjoujt,19.6969,-14.4164,44.08,7,17,4.51,MR,1691260113
276,carbonear,47.7332,-53.2148,20.0,77,69,4.97,CA,1691260113
277,freetown,8.484,-13.2299,25.84,78,75,8.23,SL,1691260113
278,murghob,38.1702,73.9667,10.88,73,91,2.92,TJ,1691260113
279,labasa,-16.4167,179.3833,22.8,94,90,3.1,FJ,1691260113
280,chul'man,56.8479,124.9104,11.24,73,43,1.53,RU,1691260114
281,candon,17.1947,120.4517,28.9,85,95,3.05,PH,1691260114
282,ponta delgada,37.7333,-25.6667,23.4,68,75,2.57,PT,1691260114
283,ar rutbah,33.0381,40.2848,33.8,17,0,3.78,IQ,1691260114
284,saryozek,44.3583,77.9753,21.95,25,0,0.59,KZ,1691260115
285,la rioja,42.25,-2.5,20.88,41,0,4.18,ES,1691260115
286,laascaanood,8.4774,47.3597,30.17,33,80,12.79,SO,1691260115
287,san andres,12.5847,-81.7006,32.01,70,20,6.69,CO,1691260115
288,cayambe,0.05,-78.1333,23.59,74,84,3.8,EC,1691260116
289,queenstown,-31.8976,26.8753,14.44,31,0,2.42,ZA,1691260116
290,mili,6.0815,171.735,27.81,79,48,5.42,MH,1691260116
291,nuku'alofa,-21.1333,-175.2,19.19,94,75,5.66,TO,1691260053
292,tsiombe,-25.3,45.4833,19.51,60,0,6.93,MG,1691260116
293,trinidad,-14.8333,-64.9,34.99,41,20,2.57,BO,1691260117
294,bayanhongor,46.7167,100.1167,9.98,66,5,0.75,MN,1691260117
295,bamor kalan,24.9,78.15,24.19,96,100,5.1,IN,1691260117
296,chonchi,-42.6128,-73.8092,12.29,75,53,1.65,CL,1691260117
297,tabou,4.423,-7.3528,25.32,85,97,5.25,CI,1691260117
298,metu,8.3,35.5833,14.9,98,100,1.21,ET,1691260117
299,amalapuram,16.5833,82.0167,27.42,81,25,1.72,IN,1691260118
300,ca mau,9.1769,105.15,25.91,89,64,1.96,VN,1691260118
301,puerto baquerizo moreno,-0.9,-89.6,26.55,74,75,5.14,EC,1691260118
302,itaituba,-4.2761,-55.9836,36.09,46,40,2.57,BR,1691259924
303,hotan,37.0997,79.9269,31.43,23,81,1.18,CN,1691260118
304,shalkar,47.8288,59.6258,29.71,29,59,7.0,KZ,1691260119
305,karasuk,53.7377,78.0403,18.66,83,100,1.23,RU,1691260119
306,knyaze-volkonskoye,48.4642,135.4567,14.19,96,100,2.71,RU,1691260119
307,buala,-8.145,159.5921,24.57,93,100,1.63,SB,1691260119
308,kayyerkan,69.3786,87.7439,13.78,61,2,0.87,RU,1691260120
309,kalmunai,7.4167,81.8167,27.29,80,73,2.42,LK,1691260120
310,cockburn town,21.4612,-71.1419,29.2,82,7,8.51,TC,1691260120
311,belyy yar,53.6039,91.3903,17.94,88,0,2.0,RU,1691260120
312,severo-yeniseyskiy,60.3725,93.0408,8.03,99,100,1.69,RU,1691260121
313,khandud,36.9513,72.318,19.01,38,44,3.43,AF,1691260121
314,tahoua,14.8888,5.2692,27.99,89,20,0.0,NE,1691260121
315,tamanrasset,22.785,5.5228,30.95,23,40,9.77,DZ,1691260121
316,bochum,51.4833,7.2167,15.93,89,100,2.24,DE,1691259753
317,kourou,5.1552,-52.6478,32.03,67,13,4.72,GF,1691260122
318,faya-largeau,17.9257,19.1043,33.95,44,9,5.23,TD,1691260122
319,tangalle,6.024,80.7911,27.09,83,93,5.55,LK,1691260122
320,urumqi,43.801,87.6005,28.53,26,0,4.0,CN,1691260122
321,zhangjiakou,40.81,114.8794,22.26,60,41,1.73,CN,1691260123
322,tonala,20.6167,-103.2333,24.51,47,75,4.12,MX,1691260123
323,alofi,-19.0595,-169.9187,21.94,100,99,2.06,NU,1691260123
324,nardaran,40.5561,50.0056,27.8,61,20,8.23,AZ,1691260123
325,midvagur,62.0511,-7.1939,12.46,82,93,2.57,FO,1691260123
326,mitchell,43.7094,-98.0298,25.41,78,100,5.14,US,1691260123
327,lompoc,34.6391,-120.4579,29.91,100,100,7.2,US,1691260112
328,azadshahr,34.7909,48.5707,27.27,17,40,3.09,IR,1691260124
329,deschutes river woods,43.9915,-121.3584,24.49,42,20,2.57,US,1691260124
330,longyearbyen,78.2186,15.6401,10.91,87,75,4.63,SJ,1691259957
331,peniche,39.3558,-9.3811,28.93,60,0,8.5,PT,1691260124
332,kiunga,-6.1219,141.2906,21.41,94,100,1.15,PG,1691260125
333,noosa heads,-26.3833,153.15,15.62,78,38,5.01,AU,1691260125
334,santa marta,11.2408,-74.199,36.03,59,20,3.6,CO,1691260125
335,taraz,42.9,71.3667,27.23,26,7,5.0,KZ,1691260125
336,ketchikan,55.3422,-131.6461,20.26,64,0,3.09,US,1691260125
337,bileca,42.8719,18.4297,20.94,90,99,1.45,BA,1691260126
338,newman,37.3138,-121.0208,30.59,23,0,2.09,US,1691260126
339,las tablas,7.7667,-80.2833,29.65,75,97,5.6,PA,1691260126
340,nishinoomote,30.7333,131.0,27.83,87,100,10.24,JP,1691260126
341,hanceville,34.0607,-86.7675,33.83,50,10,0.79,US,1691260126
342,osakarovka,50.565,72.5692,18.9,69,36,2.07,KZ,1691260127
343,papao,-17.75,-149.55,25.82,79,17,0.77,PF,1691260127
344,remire-montjoly,4.9167,-52.2667,32.02,62,20,5.14,GF,1691260127
345,salalah,17.0151,54.0924,26.05,100,100,2.57,OM,1691260127
346,guaraniacu,-25.1008,-52.8781,25.53,33,0,2.28,BR,1691260127
347,ust'-ilimsk,58.0006,102.6619,7.66,94,77,1.52,RU,1691260128
348,taltal,-25.4,-70.4833,17.42,70,12,2.71,CL,1691260128
349,port lincoln,-34.7333,135.8667,11.45,64,87,2.95,AU,1691260128
350,seaside,36.6111,-121.8516,20.09,90,40,3.6,US,1691259910
351,buckingham,51.9997,-0.9878,13.46,90,100,2.68,GB,1691260128
352,guarapari,-20.6667,-40.4975,25.5,67,14,3.96,BR,1691260129
353,shache,38.4167,77.2406,28.73,21,76,2.81,CN,1691260129
354,gao,16.6362,1.637,25.85,70,89,5.64,ML,1691260129
355,manaure,11.7751,-72.4445,33.27,49,66,9.11,CO,1691260129
356,port saint john's,-31.6229,29.5448,19.54,57,0,4.53,ZA,1691260129
357,timbuktu,16.7735,-3.0074,37.74,29,95,3.56,ML,1691260129
358,kenai,60.5544,-151.2583,16.05,70,100,2.06,US,1691260130
359,gebeit,21.0667,36.3167,31.88,39,94,6.67,SD,1691260130
360,sint michiel liber,12.15,-68.9833,31.9,66,20,7.2,CW,1691260130
361,ustyuzhna,58.8394,36.4321,18.8,74,61,1.97,RU,1691260130
362,lebu,-37.6167,-73.65,13.02,66,99,1.91,CL,1691260131
363,mariinskiy posad,56.115,47.718,23.52,73,1,1.68,RU,1691260131
364,san patricio,28.017,-97.5169,37.4,37,5,7.02,US,1691260131
365,ancud,-41.8697,-73.8203,9.24,68,53,0.91,CL,1691260131
366,east end,34.5507,-92.341,39.19,28,7,3.57,US,1691260131
367,hajduboszormeny,47.6667,21.5167,23.85,67,37,0.83,HU,1691260132
368,vadso,70.0744,29.7487,13.09,82,75,1.54,NO,1691260132
369,rikaze,29.25,88.8833,12.44,79,100,0.31,CN,1691260132
370,gamay,12.3854,125.2979,27.0,80,6,4.48,PH,1691260132
371,picos,-7.0769,-41.4669,36.51,21,8,2.6,BR,1691260132
372,zouerate,22.7187,-12.4521,37.54,11,0,6.26,MR,1691260133
373,selkirk,50.1436,-96.8845,29.49,53,99,3.49,CA,1691260133
374,hannibal,39.7084,-91.3585,25.51,73,100,4.12,US,1691260133
375,narsipatnam,17.6667,82.6167,27.53,76,42,2.16,IN,1691260133
376,margate,51.3813,1.3862,17.72,88,86,1.79,GB,1691260133
377,acarau,-2.8856,-40.12,30.61,57,49,9.1,BR,1691260080
378,simanggang,1.2472,111.4528,24.99,94,44,0.0,MY,1691260134
379,enewetak,11.3474,162.3373,28.28,76,94,6.24,MH,1691260134
380,shetpe,44.1667,52.1167,31.37,28,2,6.74,KZ,1691260134
381,gizo,-8.103,156.8419,25.76,78,100,9.02,SB,1691260135
382,ostersund,63.1792,14.6357,15.34,72,20,1.03,SE,1691260135
383,kolda,12.8833,-14.95,35.17,63,20,2.06,SN,1691260135
384,inderbor,48.55,51.7833,33.16,25,20,7.05,KZ,1691260135
385,ta`u,-14.2336,-169.5144,26.86,77,77,5.25,AS,1691260135
386,praia da vitoria,38.7333,-27.0667,25.98,73,20,2.94,PT,1691260136
387,axim,4.8699,-2.2405,24.91,88,71,3.71,GH,1691260136
388,kerikeri,-35.2268,173.9474,9.01,91,57,0.96,NZ,1691260136
389,north platte,41.1239,-100.7654,28.4,52,0,7.6,US,1691260136
390,gadzhiyevo,69.2551,33.3362,10.86,94,100,6.27,RU,1691260137
391,longuenesse,50.734,2.2352,15.68,92,100,7.22,FR,1691260137
392,longjiang,47.3303,123.1836,13.25,88,13,3.17,CN,1691260137
393,beyneu,45.3167,55.2,33.52,22,0,4.75,KZ,1691260137
394,saint-junien,45.8833,0.9,17.32,87,98,3.97,FR,1691260137
395,cabedelo,-6.9811,-34.8339,28.37,74,37,5.77,BR,1691259847
396,vilyuysk,63.7553,121.6247,15.48,62,99,3.41,RU,1691260138
397,jalqani,12.4486,34.2186,22.56,86,100,2.58,SD,1691260138
398,bikenibeu village,1.3673,173.1241,27.98,78,75,2.06,KI,1691260138
399,mormugao,15.4,73.8,26.59,94,75,3.6,IN,1691260138
400,ust-tsilma,65.441,52.1498,17.69,96,40,2.22,RU,1691260139
401,callao,-12.0667,-77.15,23.16,60,20,5.14,PE,1691260139
402,ciudad lazaro cardenas,17.9583,-102.2,30.28,62,100,1.36,MX,1691260139
403,talitsy,56.5289,42.3344,21.27,66,46,1.16,RU,1691260139
404,bakanas,44.8081,76.2772,29.54,19,2,1.63,KZ,1691260139
405,bozdogan,37.6713,28.314,28.34,49,0,2.1,TR,1691260140
406,tinajo,29.0788,-13.7081,25.49,61,20,11.32,ES,1691260140
407,polokwane,-23.9045,29.4688,11.47,62,75,2.57,ZA,1691260140
408,kapa'a,22.0752,-159.319,26.99,86,75,3.09,US,1691260140
409,redencao,-4.2258,-38.7306,34.36,31,89,2.86,BR,1691260140
410,aykhal,66.0,111.5,11.48,62,86,7.62,RU,1691260141
411,moundou,8.5667,16.0833,22.63,96,97,1.8,TD,1691260141
412,tazacorte,28.629,-17.9293,24.54,78,20,4.63,ES,1691260141
413,ayr,55.4627,-4.6339,14.94,88,40,4.63,GB,1691259882
414,mazara del vallo,37.6641,12.588,25.97,63,45,11.04,IT,1691260061
415,ridgecrest,35.6225,-117.6709,34.15,17,0,1.54,US,1691260027
416,sirte,31.2089,16.5887,27.25,72,1,9.58,LY,1691260142
417,sainte-adresse,49.5089,0.0845,16.24,88,100,14.4,FR,1691260143
418,pingyi,35.5006,117.6308,24.55,96,94,0.62,CN,1691260143
419,lubang,13.8584,120.124,28.38,78,35,8.4,PH,1691260143
420,yerofey pavlovich,53.9667,121.9667,12.46,66,63,1.48,RU,1691260143
421,hachinohe,40.5,141.5,23.8,91,67,1.98,JP,1691260144
422,al kharijah,25.4514,30.5464,35.42,12,3,4.74,EG,1691260144
423,constitucion,-35.3333,-72.4167,13.08,79,100,4.6,CL,1691260144
424,tandur,17.2333,77.5833,24.5,84,86,4.03,IN,1691260144
425,la ronge,55.1001,-105.2842,23.14,49,40,7.72,CA,1691260145
426,san pedro pochutla,15.7333,-96.4667,33.73,55,74,2.89,MX,1691260145
427,micheweni,-4.9667,39.8333,24.27,84,43,4.97,TZ,1691260145
428,kirensk,57.7853,108.1119,15.1,79,100,1.53,RU,1691260145
429,fort st. john,56.2499,-120.8529,19.94,60,20,2.06,CA,1691260145
430,cao bang,22.6667,106.25,24.67,98,99,0.52,VN,1691260146
431,nuuk,64.1835,-51.7216,9.34,87,100,2.57,GL,1691260146
432,naze,28.3667,129.4833,25.51,93,100,10.55,JP,1691260146
433,oroqen zizhiqi,50.5667,123.7167,12.02,72,30,1.4,CN,1691260146
434,dourados,-22.2211,-54.8056,30.88,23,0,3.49,BR,1691260146
435,malango,-2.9627,119.9001,19.31,97,61,0.31,ID,1691260147
436,rongelap,11.1635,166.8941,28.38,75,71,7.42,MH,1691260147
437,maplewood,44.953,-92.9952,28.86,63,75,1.54,US,1691260147
438,roma,43.2128,-75.4557,24.9,70,20,2.06,US,1691259992
439,prince rupert,54.3161,-130.3201,20.05,75,100,2.06,CA,1691260003
440,neryungri,56.6709,124.6491,11.61,68,43,1.58,RU,1691260147
441,al muwayh,22.4333,41.7583,32.07,17,86,9.02,SA,1691260148
442,galle,6.0367,80.217,27.08,84,95,5.75,LK,1691260148
443,nagqu,31.5,92.0,4.0,88,68,1.51,CN,1691260148
444,indramayu,-6.3264,108.32,24.65,76,3,3.39,ID,1691260149
445,grand-bassam,5.2118,-3.7388,25.98,86,77,3.43,CI,1691260149
446,lata,40.1629,-8.3327,29.72,42,0,3.19,PT,1691260149
447,valle de la pascua,9.2155,-66.0073,29.07,76,28,2.04,VE,1691260149
448,mar del plata,-38.0023,-57.5575,12.75,65,0,6.69,AR,1691260089
449,mo i rana,66.3128,14.1428,15.18,76,100,1.54,NO,1691260150
450,nieuw amsterdam,5.8833,-55.0833,33.34,71,47,4.42,SR,1691260150
451,amarante do maranhao,-5.5667,-46.7422,34.14,32,46,1.75,BR,1691260150
452,illizi,26.4833,8.4667,42.89,7,0,3.88,DZ,1691260150
453,ierapetra,35.01,25.7353,27.86,71,0,1.34,GR,1691260151
454,nikolayevsk-on-amure,53.1406,140.73,11.54,75,60,0.83,RU,1691260151
455,moa,20.6569,-74.9403,32.39,64,23,5.53,CU,1691260151
456,okhotsk,59.3833,143.3,13.79,64,77,3.07,RU,1691260151
457,kijang,35.2442,129.2139,26.85,79,0,2.6,KR,1691260151
458,beira,-19.8436,34.8389,23.05,88,75,3.6,MZ,1691260152
459,puerto carreno,6.189,-67.4859,29.99,70,40,2.57,CO,1691260152
460,springbok,-29.6643,17.8865,14.01,39,54,1.26,ZA,1691260152
461,samus',56.7475,84.6992,15.18,70,0,2.21,RU,1691260152
462,machico,32.7,-16.7667,26.51,68,20,5.14,PT,1691260153
463,zinjibar,13.1287,45.3807,31.13,63,49,2.95,YE,1691260153
464,sokoni,-6.4333,39.55,24.92,81,18,6.51,TZ,1691260153
465,pisco,-13.7,-76.2167,21.12,64,0,4.63,PE,1691259885
466,kosh-agach,50.0,88.6667,12.07,80,97,0.48,RU,1691260153
467,kapuskasing,49.4169,-82.4331,22.05,43,40,1.54,CA,1691259893
468,reggane,26.7158,0.1714,46.27,5,0,5.16,DZ,1691260154
469,gambela,8.25,34.5833,22.37,92,100,1.26,ET,1691260154
470,shingu,33.7333,135.9833,25.93,91,64,1.37,JP,1691260154
471,ullal,12.8,74.85,25.53,94,75,4.63,IN,1691260154
472,bubaque,11.2833,-15.8333,28.07,77,94,2.66,GW,1691260155
473,decatur,39.8403,-88.9548,27.67,83,100,9.77,US,1691260033
474,benguela,-12.5763,13.4055,20.91,85,60,0.95,AO,1691260155
475,sao paulo,-23.5475,-46.6361,27.94,31,0,4.63,BR,1691260155
476,kendari,-3.945,122.4989,22.99,92,1,1.21,ID,1691260155
477,creston,41.0586,-94.3614,28.17,100,100,3.09,US,1691259971
478,barcelona,41.3888,2.159,29.05,59,0,7.2,ES,1691259923
479,merizo village,13.2658,144.6691,26.85,95,100,0.9,GU,1691260156
480,sabang,5.8933,95.3214,28.16,79,67,3.65,ID,1691260156
481,satellite beach,28.1761,-80.5901,36.71,71,0,4.12,US,1691260157
482,maymana,35.9214,64.7836,28.8,19,0,1.61,AF,1691260157
483,brokopondo,4.75,-55.1667,31.83,54,9,1.12,SR,1691260157
484,bandikui,27.05,76.5667,29.66,71,100,2.67,IN,1691260157
485,obligado,-27.0333,-55.6333,30.32,27,0,3.29,PY,1691260157
486,kailua-kona,19.6406,-155.9956,26.98,77,20,2.57,US,1691260026
487,kilju,40.9642,129.3278,20.98,98,100,2.24,KP,1691260158
488,tanggulangin,-7.4996,112.6999,25.98,78,20,0.51,ID,1691260158
489,arraial do cabo,-22.9661,-42.0278,24.98,73,0,6.69,BR,1691260158
490,belmonte,-15.8631,-38.8828,25.23,54,0,3.05,BR,1691260158
491,sungai raya,0.7,108.9,26.4,88,7,2.01,ID,1691260158
492,torghay,49.6339,63.4981,24.24,61,71,3.54,KZ,1691260158
493,tindouf,27.6711,-8.1474,39.25,15,0,5.14,DZ,1691260158
494,waterloo,43.4668,-80.5164,25.36,56,75,1.54,CA,1691260151
495,beinamar,8.6698,15.3813,22.82,95,100,0.89,TD,1691260159
496,magadan,59.5667,150.8,10.75,65,62,3.22,RU,1691260159
497,chimore,-16.9833,-65.1333,34.73,22,0,2.26,BO,1691260159
498,agadez,19.75,10.25,39.14,13,58,4.69,NE,1691260159
499,portland,45.5234,-122.6762,24.01,74,100,1.54,US,1691259547
500,kill devil hills,36.0307,-75.676,29.0,81,100,5.66,US,1691259943
501,tondano,1.3038,124.9112,19.05,95,98,1.56,ID,1691260159
502,sirjan,29.452,55.6814,29.65,20,44,1.45,IR,1691260159
503,sinan,34.8262,126.1086,27.06,87,0,5.16,KR,1691260160
504,santa maria del oro,25.9333,-105.3667,31.61,24,1,4.24,MX,1691260160
505,olyokminsk,60.3736,120.4264,16.17,86,97,1.54,RU,1691260160
506,muravlenko,63.7898,74.523,17.84,52,9,3.58,RU,1691260160
507,tucuma,-0.1833,-50.05,31.18,59,11,4.07,BR,1691260160
508,maracacume,-2.0428,-45.9592,35.41,36,40,1.72,BR,1691260160
509,mankono,8.0586,-6.1897,26.13,83,82,1.8,CI,1691260160
510,sao gabriel da cachoeira,-0.1303,-67.0892,30.89,70,20,1.54,BR,1691260161
511,dompu,-8.5356,118.4622,21.98,97,36,1.6,ID,1691260161
512,westport,41.1415,-73.3579,29.71,61,0,4.63,US,1691260161
513,puerto rosario,-24.45,-57.0833,34.84,21,0,2.32,PY,1691260161
514,afaahiti,-17.75,-149.2833,24.93,76,8,0.7,PF,1691260162
515,taoudenni,22.6783,-3.9836,47.72,6,2,3.13,ML,1691260162
516,east london,-33.0153,27.9116,19.52,55,0,3.09,ZA,1691260162
517,cova figueira,14.8905,-24.2934,23.49,79,11,5.0,CV,1691260162
518,el negrito,15.3167,-87.7,31.78,42,36,1.49,HN,1691260162
519,baymak,52.5933,58.3225,19.35,67,70,2.6,RU,1691260163
520,beaufort west,-32.3567,22.583,18.79,32,11,3.78,ZA,1691260163
521,zavallya,48.2135,30.0156,27.61,34,0,3.71,UA,1691260163
522,damara,4.9608,18.7035,23.19,91,79,1.39,CF,1691260163
523,roghun,38.7826,69.8708,22.94,27,4,0.35,TJ,1691260164
524,moussoro,13.6408,16.4901,30.94,53,95,1.34,TD,1691260164
525,arvayheer,46.2639,102.775,13.89,67,27,0.88,MN,1691260164
526,qarauyl,48.9451,79.255,23.43,49,35,4.18,KZ,1691260164
527,colac,-38.3333,143.5833,8.8,94,96,1.34,AU,1691260164
528,talcahuano,-36.7167,-73.1167,12.82,82,75,4.12,CL,1691260165
529,neiafu,-18.65,-173.9833,23.38,94,100,4.12,TO,1691260165
530,undurkhaan,47.3194,110.6556,12.78,93,50,2.06,MN,1691260165
531,sao bento,-6.2833,-37.75,32.21,27,3,2.99,BR,1691260014
532,mossel bay,-34.1831,22.146,12.96,74,40,0.78,ZA,1691260165
533,teluk nibung,3.001,99.8164,24.89,91,48,0.74,ID,1691260166
534,kingston,17.997,-76.7936,33.47,69,20,11.83,JM,1691259948
535,chandrakona,22.7333,87.5167,27.44,79,100,5.06,IN,1691260166
536,lady frere,-31.7031,27.2329,14.75,25,0,3.26,ZA,1691260167
537,poniatowa,51.1798,22.1309,22.07,86,74,2.54,PL,1691260167
538,macapa,0.0389,-51.0664,33.99,55,20,4.63,BR,1691260167
539,mul,20.0667,79.6667,25.38,88,90,3.17,IN,1691260167
540,puerto ayacucho,5.6639,-67.6236,31.43,62,65,0.92,VE,1691260167
541,aloja,57.7669,24.8825,17.55,78,100,2.05,LV,1691260167
542,khanty-mansiysk,61.0042,69.0019,21.06,49,0,3.0,RU,1691260168
543,taunsa,30.7048,70.6505,38.2,36,4,6.22,PK,1691260168
544,novyy urengoy,66.0833,76.6333,20.83,55,8,3.05,RU,1691260168
545,kapuvar,47.5922,17.0289,18.14,85,100,7.93,HU,1691260168
546,val-d'or,48.1002,-77.7828,21.05,46,40,4.63,CA,1691259873
547,itoman,26.1247,127.6694,27.01,94,75,18.52,JP,1691260169
548,antsiranana,-12.2787,49.2917,23.09,76,17,8.96,MG,1691260169
549,tanaina,61.6269,-149.4281,17.89,73,20,0.89,US,1691260169
550,la gi,10.6667,107.7833,25.76,89,63,3.78,VN,1691260169
551,nouadhibou,20.931,-17.0347,23.99,73,4,9.77,MR,1691260170
552,brandon,27.9378,-82.2859,36.83,77,75,0.45,US,1691260170
553,riohacha,11.5444,-72.9072,36.06,49,20,8.23,CO,1691260170
554,rosa zarate,0.3333,-79.4667,29.35,72,96,2.04,EC,1691260170
555,afif,23.9065,42.9172,32.66,8,51,4.54,SA,1691260170
556,san jose del guaviare,2.5729,-72.6459,24.33,92,100,0.44,CO,1691260171
557,kayangel,8.0823,134.7173,27.72,77,100,4.15,PW,1691260171
558,barcelos,41.5388,-8.6151,33.29,43,0,4.6,PT,1691260171
559,la passe,45.5549,-0.8967,19.13,71,75,9.01,FR,1691260171
560,morinville,53.8001,-113.652,23.24,53,0,2.06,CA,1691260172
