City_ID,City,Lat,Lng,Max Temp,Humidity,Cloudiness,Wind Speed,Country,Date
0,yellowknife,62.456,-114.3525,20.29,42,75,1.54,CA,1691261033
1,avarua,-21.2078,-159.775,22.03,78,100,3.6,CK,1691261024
2,uttar char fasson,22.2332,90.7132,28.21,84,100,7.13,BD,1691261274
3,adamstown,-25.066,-130.1015,19.13,63,9,6.32,PN,1691261016
4,bilibino,68.0546,166.4372,4.17,96,100,2.66,RU,1691261025
5,edinburgh of the seven seas,-37.0676,-12.3116,13.45,80,8,16.55,SH,1691261015
6,port mathurin,-19.6833,63.4167,22.87,74,56,11.72,MU,1691261047
7,grytviken,-54.2811,-36.5092,-5.25,83,100,5.3,GS,1691261017
8,iqaluit,63.7506,-68.5145,10.85,76,20,2.57,CA,1691261017
9,margaret river,-33.95,115.0667,8.62,80,100,1.47,AU,1691261021
10,waitangi,-43.9535,-176.5597,9.03,59,100,14.91,NZ,1691261015
11,tazovsky,67.4667,78.7,14.21,57,6,2.6,RU,1691261036
12,mahriz,31.5917,54.4318,28.79,15,0,1.6,IR,1691261276
13,numaligarh,26.6333,93.75,24.7,99,100,0.52,IN,1691261276
14,revda,56.801,59.9303,18.89,77,88,1.7,RU,1691261179
15,isafjordur,66.0755,-23.124,12.02,62,40,2.57,IS,1691261038
16,kulhudhuffushi,6.6221,73.07,28.04,78,99,6.08,MV,1691261277
17,lebu,-37.6167,-73.65,12.96,70,0,2.01,CL,1691261023
18,ramnagar,29.4,79.1167,25.06,92,85,1.2,IN,1691261277
19,albany,42.6001,-73.9662,26.64,59,100,3.78,US,1691261027
20,port-aux-francais,-49.35,70.2167,2.42,72,97,13.98,TF,1691261019
21,newman,37.3138,-121.0208,31.7,19,0,2.14,US,1691261278
22,blackmans bay,-43.0167,147.3167,8.62,86,93,2.79,AU,1691261021
23,papatowai,-46.5619,169.4708,6.2,80,100,3.57,NZ,1691261031
24,haiku-pauwela,20.9219,-156.3051,26.2,64,20,8.23,US,1691261049
25,petropavlovsk-kamchatsky,53.0452,158.6483,12.33,100,75,3.0,RU,1691261180
26,dudinka,69.4058,86.1778,13.68,61,1,2.49,RU,1691261055
27,jamestown,42.097,-79.2353,24.14,65,100,3.09,US,1691261019
28,bethel,41.3712,-73.414,29.19,59,0,4.63,US,1691261019
29,invercargill,-46.4,168.35,6.68,87,100,1.79,NZ,1691261016
30,ushuaia,-54.8,-68.3,3.81,81,100,9.77,AR,1691261020
31,usinsk,65.9939,57.5281,19.09,83,83,4.28,RU,1691260702
32,cartagena,10.3997,-75.5144,32.79,70,20,5.66,CO,1691260987
33,kodiak,57.79,-152.4072,11.73,94,100,2.57,US,1691261032
34,rongelap,11.1635,166.8941,28.38,74,62,7.0,MH,1691261122
35,stanley,54.868,-1.6985,12.93,84,20,5.14,GB,1691261016
36,ayr,55.4627,-4.6339,14.43,82,20,4.12,GB,1691261281
37,gizo,-8.103,156.8419,25.77,78,100,8.78,SB,1691261174
38,hengchun,22.0042,120.7439,27.87,88,100,11.46,TW,1691261282
39,port saint john's,-31.6229,29.5448,19.29,54,0,4.02,ZA,1691261200
40,barra de santo antonio,-9.4047,-35.5072,27.6,76,17,3.66,BR,1691261282
41,tiksi,71.6872,128.8694,1.71,83,97,3.47,RU,1691261073
42,bredasdorp,-34.5322,20.0403,9.86,92,100,1.53,ZA,1691261046
43,cukurca,37.2481,43.6136,23.94,24,0,1.57,TR,1691261283
44,ulsteinvik,62.3432,5.8487,14.06,75,100,3.13,NO,1691261283
45,patacamaya,-17.2333,-67.9167,13.47,28,56,5.45,BO,1691261283
46,puerto ayora,-0.7393,-90.3518,28.98,90,36,4.92,EC,1691261018
47,praia da vitoria,38.7333,-27.0667,25.14,73,20,2.81,PT,1691261049
48,yoakum,29.2878,-97.1519,37.55,27,6,4.18,US,1691261283
49,hithadhoo,-0.6,73.0833,27.29,77,100,2.93,MV,1691260899
50,kuragino,53.8975,92.6725,14.89,84,95,0.54,RU,1691261284
51,tolanaro,-25.0319,46.9987,20.04,73,20,7.2,MG,1691261034
52,gaigeturi,33.4644,126.3183,27.03,94,0,1.03,KR,1691261284
53,chota,-6.55,-78.65,20.62,47,47,4.52,PE,1691261284
54,remire-montjoly,4.9167,-52.2667,32.02,66,0,5.14,GF,1691261026
55,saint-marcel,49.1,1.45,17.43,88,100,9.26,FR,1691261285
56,vilyuysk,63.7553,121.6247,14.86,62,100,3.11,RU,1691261179
57,sinabang,2.4803,96.3801,26.88,85,100,1.88,ID,1691261085
58,puerto natales,-51.7236,-72.4875,5.39,86,100,10.16,CL,1691261017
59,punta arenas,-53.15,-70.9167,4.83,91,100,13.05,CL,1691260831
60,hawaiian paradise park,19.5933,-154.9731,25.5,80,75,2.06,US,1691261018
61,fort bragg,35.139,-79.006,32.89,57,20,3.6,US,1691261285
62,port augusta,-32.5,137.7667,5.39,83,0,2.0,AU,1691261163
63,udachny,66.4167,112.4,10.25,75,98,4.69,RU,1691261100
64,santiago de la pena,20.95,-97.4,32.56,56,62,4.62,MX,1691261286
65,vokhtoga,58.8147,41.0461,17.33,82,17,2.29,RU,1691261286
66,west island,-12.1568,96.8225,24.99,88,75,7.72,CC,1691261026
67,muynoq,43.7683,59.0214,28.82,33,3,1.27,UZ,1691261023
68,mukalla,14.5425,49.1242,30.85,62,39,2.22,YE,1691261287
69,longyearbyen,78.2186,15.6401,10.91,87,75,4.63,SJ,1691261018
70,taltal,-25.4,-70.4833,17.07,72,3,3.17,CL,1691260820
71,whitehorse,60.7161,-135.0538,20.43,42,75,6.17,CA,1691261029
72,touros,-5.1989,-35.4608,26.86,72,100,8.04,BR,1691261029
73,anadyr,64.75,177.4833,11.28,87,75,9.0,RU,1691261043
74,kapit,2.0167,112.9333,23.93,99,99,0.09,MY,1691261288
75,basi,26.8333,76.0333,28.19,67,98,5.33,IN,1691261288
76,argo,37.6333,22.7333,28.77,50,0,2.47,GR,1691261036
77,pieksamaki,62.3,27.1333,15.16,90,100,1.72,FI,1691261289
78,ribeira grande,38.5167,-28.7,24.22,78,75,3.6,PT,1691261026
79,tofol,5.3248,163.0078,28.1,70,40,1.25,FM,1691261068
80,simanggang,1.2472,111.4528,25.01,94,100,0.0,MY,1691261289
81,la sarre,48.8002,-79.1996,23.59,29,5,3.64,CA,1691261027
82,nenjiang,49.1833,125.2167,14.26,90,0,1.95,CN,1691261290
83,ilulissat,69.2167,-51.1,9.01,71,20,2.57,GL,1691261068
84,centerville,39.6284,-84.1594,29.47,68,0,3.6,US,1691261290
85,luderitz,-26.6481,15.1594,14.68,76,30,3.48,NA,1691261290
86,martuk,50.7475,56.5056,23.93,46,7,2.83,KZ,1691261291
87,klyuchi,52.2667,79.1667,19.4,68,89,1.81,RU,1691261047
88,ambagarh chauki,20.7833,80.7167,25.13,86,100,3.94,IN,1691261291
89,brookings,44.3114,-96.7984,22.43,94,100,5.66,US,1691260565
90,magadan,59.5667,150.8,11.12,65,20,3.47,RU,1691261291
91,aykhal,66.0,111.5,10.4,66,24,7.12,RU,1691261072
92,la passe,45.5549,-0.8967,19.13,73,5,8.82,FR,1691261076
93,dubbo,-32.25,148.6167,7.07,93,40,6.17,AU,1691260700
94,keflavik,64.0049,-22.5624,13.95,100,100,6.17,IS,1691261292
95,wailua homesteads,22.0669,-159.378,26.24,85,75,3.09,US,1691261032
96,dhidhdhoo,6.8833,73.1,27.98,79,82,6.05,MV,1691261292
97,badger,64.8,-147.5333,22.85,62,100,1.54,US,1691261033
98,waingapu,-9.6567,120.2641,24.07,83,14,7.36,ID,1691261182
99,dryden,49.7833,-92.7503,26.16,57,75,3.09,CA,1691261293
100,sindangan,8.2376,122.9974,25.79,87,30,1.23,PH,1691261293
101,tateyama,34.9833,139.8667,26.45,87,0,3.86,JP,1691261293
102,bereznik,62.8551,42.7072,16.02,92,0,2.29,RU,1691261182
103,zyryanovsk,49.7386,84.2719,15.97,77,28,0.53,KZ,1691261294
104,tsiombe,-25.3,45.4833,19.35,62,0,6.69,MG,1691261032
105,ust-nera,64.5667,143.2,12.99,68,100,2.26,RU,1691261021
106,college,64.8569,-147.8028,22.89,64,40,1.54,US,1691261018
107,zhosaly,45.4878,64.0781,27.47,42,9,2.72,KZ,1691261295
108,alice springs,-23.7,133.8833,8.75,81,0,3.09,AU,1691261062
109,la ronge,55.1001,-105.2842,23.14,49,40,7.72,CA,1691261068
110,talnakh,69.4865,88.3972,13.45,52,0,0.36,RU,1691261033
111,mvurwi,-17.0333,30.85,12.21,59,11,1.27,ZW,1691261296
112,rio grande,-32.035,-52.0986,19.06,65,0,3.78,BR,1691261142
113,la'ie,21.6477,-157.9253,27.98,74,37,5.54,US,1691261082
114,nagqu,31.5,92.0,3.43,88,7,1.5,CN,1691261058
115,pangody,65.85,74.4859,19.47,51,7,3.01,RU,1691261019
116,xiulin,29.7167,112.4,28.8,78,0,2.8,CN,1691261297
117,chonchi,-42.6128,-73.8092,11.73,75,100,1.53,CL,1691261043
118,itupiranga,-5.1347,-49.3267,35.18,35,74,0.27,BR,1691261297
119,faya-largeau,17.9257,19.1043,33.67,45,4,5.18,TD,1691261297
120,ola,59.5833,151.2833,11.28,65,10,3.67,RU,1691261126
121,belyy yar,53.6039,91.3903,17.94,88,0,2.0,RU,1691261133
122,arraial do cabo,-22.9661,-42.0278,24.98,73,0,6.69,BR,1691260957
123,tura,25.5198,90.2201,24.04,98,100,1.76,IN,1691261036
124,vorgashor,67.5833,63.95,17.85,54,0,2.28,RU,1691261082
125,armacao de buzios,-22.7469,-41.8817,25.09,79,0,4.92,BR,1691261013
126,olonkinbyen,70.9221,-8.7187,3.92,92,100,10.05,SJ,1691261078
127,ruteng,-8.6136,120.4721,14.58,86,2,0.36,ID,1691261299
128,port alfred,-33.5906,26.891,20.44,50,1,3.6,ZA,1691261019
129,the pas,53.8251,-101.2541,24.01,50,20,6.69,CA,1691261299
130,sorochinsk,52.4338,53.1583,26.58,41,91,1.64,RU,1691261299
131,minot,48.2325,-101.2963,25.06,50,0,5.14,US,1691261138
132,thompson,55.7435,-97.8558,18.09,82,75,5.66,CA,1691260936
133,ishigaki,24.3448,124.1572,28.07,89,98,3.09,JP,1691261194
134,lihue,21.9789,-159.3672,26.58,80,75,3.09,US,1691261093
135,georgetown,5.4112,100.3354,27.96,91,20,1.54,MY,1691260774
136,aroma,15.8167,36.1333,26.93,71,100,8.84,SD,1691261300
137,lompoc,34.6391,-120.4579,27.14,100,100,7.2,US,1691261125
138,sirte,31.2089,16.5887,27.1,70,0,9.29,LY,1691261188
139,puerto deseado,-47.7503,-65.8938,10.65,44,0,6.33,AR,1691261039
140,atafu village,-8.5421,-172.5159,27.96,77,20,5.45,TK,1691261039
141,khash,28.2211,61.2158,29.65,12,7,1.55,IR,1691261235
142,shingu,33.7333,135.9833,26.04,91,89,1.67,JP,1691260757
143,vila franca do campo,37.7167,-25.4333,23.23,71,100,2.82,PT,1691261024
144,cascais,38.6979,-9.4215,31.64,25,0,9.77,PT,1691261176
145,st. john's,47.5649,-52.7093,19.75,72,75,5.14,CA,1691260926
146,bandar-e lengeh,26.5579,54.8807,35.06,79,6,2.06,IR,1691261302
147,okahao,-17.885,15.0667,18.89,22,0,4.28,NA,1691261303
148,saint-pierre,-21.3393,55.4781,21.82,73,0,9.77,RE,1691261303
149,vilyuchinsk,52.9306,158.4028,13.15,87,0,3.61,RU,1691261016
150,nema,57.5067,50.5011,18.51,77,3,2.82,RU,1691261303
151,naze,28.3667,129.4833,25.51,92,97,7.57,JP,1691261303
152,crane,31.3974,-102.3501,38.04,20,0,7.01,US,1691261027
153,coquimbo,-29.9533,-71.3436,14.85,88,100,4.63,CL,1691261055
154,busselton,-33.65,115.3333,8.23,81,100,2.3,AU,1691261304
155,tome acu,-2.4189,-48.1522,37.17,27,54,1.98,BR,1691261304
156,inhambane,-23.865,35.3833,17.99,93,20,0.0,MZ,1691261304
157,nadym,65.5333,72.5167,18.97,48,53,2.81,RU,1691261183
158,soure,-0.7167,-48.5233,29.66,67,10,5.53,BR,1691261305
159,nyurba,63.2842,118.3319,14.75,70,18,4.02,RU,1691261171
160,hermanus,-34.4187,19.2345,11.0,89,100,1.91,ZA,1691261101
161,qamdo,31.1667,97.2333,6.41,94,100,2.05,CN,1691261305
162,meridian,43.6121,-116.3915,28.62,48,0,1.79,US,1691261305
163,orai,25.9833,79.4667,27.07,90,100,3.19,IN,1691261306
164,port lincoln,-34.7333,135.8667,11.59,63,100,3.31,AU,1691261115
165,ghat,24.9647,10.1728,37.9,8,1,4.89,LY,1691261306
166,taft,31.7471,54.2088,28.23,16,0,1.78,IR,1691261306
167,hounde,11.5,-3.5167,27.52,70,100,3.29,BF,1691261306
168,tampere,61.4991,23.7871,19.36,75,0,4.02,FI,1691261176
169,utrik,11.2278,169.8474,27.92,68,96,7.57,MH,1691261025
170,khandyga,62.6667,135.6,13.98,71,100,0.59,RU,1691261307
171,fale old settlement,-9.3852,-171.2468,28.05,77,33,6.31,TK,1691261070
172,kurikka,62.6167,22.4167,18.24,86,5,1.71,FI,1691261307
173,kongoussi,13.3258,-1.5347,30.89,55,100,7.2,BF,1691261308
174,plastun,44.7561,136.2939,14.55,95,100,1.65,RU,1691261195
175,kapuskasing,49.4169,-82.4331,22.05,43,40,1.54,CA,1691261308
176,lospalos,-8.5186,127.0025,19.14,88,98,1.84,TL,1691261121
177,azzaba,36.7394,7.1053,22.65,69,2,1.41,DZ,1691261309
178,severo-yeniseyskiy,60.3725,93.0408,8.07,99,100,1.5,RU,1691261141
179,susuman,62.7833,148.1667,8.07,70,23,1.21,RU,1691261059
180,san patricio,28.017,-97.5169,37.4,37,14,7.59,US,1691261040
181,taoudenni,22.6783,-3.9836,44.97,6,20,2.94,ML,1691261186
182,acajutla,13.5928,-89.8275,32.08,60,60,3.98,SV,1691261185
183,arkhangel'sk,64.5401,40.5433,15.99,97,5,2.38,RU,1691261175
184,mirny,62.5353,113.9611,16.8,63,93,4.92,RU,1691261310
185,laguna,38.421,-121.4238,34.49,47,0,0.45,US,1691261050
186,"laikit, laikit ii (dimembe)",1.4792,124.9735,21.47,94,20,1.03,ID,1691261310
187,pisco,-13.7,-76.2167,21.12,64,0,4.63,PE,1691261064
188,new norfolk,-42.7826,147.0587,9.28,86,100,1.32,AU,1691261023
189,vila velha,-20.3297,-40.2925,25.97,78,0,6.17,BR,1691261311
190,tambopata,-12.7333,-69.1833,33.94,49,40,1.54,PE,1691261311
191,uige,-7.6087,15.0613,22.54,25,4,1.92,AO,1691261311
192,flying fish cove,-10.4217,105.6791,24.82,88,100,6.17,CX,1691261311
193,kudahuvadhoo,2.6708,72.8944,28.15,77,100,4.86,MV,1691261200
194,kapa'a,22.0752,-159.319,26.99,85,75,3.09,US,1691261126
195,emerald,-23.5333,148.1667,12.73,77,0,2.44,AU,1691261311
196,sabang,5.8933,95.3214,27.98,79,38,3.75,ID,1691261158
197,puerto baquerizo moreno,-0.9,-89.6,26.55,74,75,5.14,EC,1691261138
198,portland,45.5234,-122.6762,24.76,73,100,1.54,US,1691260920
199,taulaga,-11.0553,-171.0883,27.65,79,50,6.8,AS,1691261170
200,otjiwarongo,-20.4637,16.6477,16.28,26,0,4.95,NA,1691261313
201,kholmsk,47.0511,142.0569,12.71,88,87,1.86,RU,1691261313
202,sandnessjoen,66.0217,12.6316,13.29,71,76,1.25,NO,1691261313
203,aasiaat,68.7098,-52.8699,1.87,93,86,2.63,GL,1691261020
204,izluchinsk,60.9794,76.9242,12.01,55,0,2.96,RU,1691261313
205,mana,5.6592,-53.7767,28.58,73,36,4.61,GF,1691261024
206,afaahiti,-17.75,-149.2833,24.93,76,18,1.24,PF,1691261026
207,pacific grove,36.6177,-121.9166,23.45,89,40,3.6,US,1691261131
208,illizi,26.4833,8.4667,42.89,7,0,3.94,DZ,1691261081
209,kingsland,30.8,-81.6898,33.9,65,100,1.87,US,1691261052
210,kuta,-8.7233,115.1723,25.97,88,40,5.36,ID,1691261315
211,happy valley-goose bay,53.3168,-60.3315,24.17,46,75,5.14,CA,1691261064
212,kalaleh,37.3807,55.4916,28.78,65,75,2.06,IR,1691261315
213,nar'yan-mar,67.6713,53.087,19.82,81,19,2.92,RU,1691261028
214,qaqortoq,60.7167,-46.0333,9.55,73,4,0.8,GL,1691261035
215,namibe,-15.1961,12.1522,18.39,85,0,1.65,AO,1691261113
216,fort st. john,56.2499,-120.8529,19.94,60,20,2.06,CA,1691261022
217,saint-philippe,-21.3585,55.7679,21.77,81,87,7.75,RE,1691261086
218,dem'yanovo,60.3511,47.0842,17.27,87,43,2.19,RU,1691261316
219,tual,-5.6667,132.75,25.64,77,73,9.4,ID,1691261317
220,topolobampo,25.6,-109.05,31.95,66,20,2.06,MX,1691261317
221,ngaoundere,7.3167,13.5833,18.65,96,100,0.97,CM,1691261317
222,piacabucu,-10.4056,-36.4344,24.68,81,67,3.76,BR,1691261317
223,marsh harbour,26.5412,-77.0636,30.59,70,54,6.31,BS,1691261172
224,berezovyy,51.6667,135.7,12.39,73,15,1.73,RU,1691261318
225,selfoss,63.9331,-20.9971,13.91,83,86,4.29,IS,1691261095
226,buala,-8.145,159.5921,24.43,95,100,2.34,SB,1691261318
227,akureyri,65.6835,-18.0878,11.96,76,75,4.12,IS,1691261158
228,chissamba,-12.1667,17.3333,17.54,27,0,1.54,AO,1691261318
229,sitka,57.0531,-135.33,19.94,73,40,0.0,US,1691260985
230,kavieng,-2.5744,150.7967,26.75,80,100,5.13,PG,1691261319
231,palikir - national government center,6.9248,158.1611,23.41,94,100,0.0,FM,1691261319
232,weno,7.4515,151.8468,26.97,94,100,3.09,FM,1691261025
233,oneonta,42.4529,-75.0638,26.01,76,100,3.57,US,1691261189
234,okhotsk,59.3833,143.3,14.46,64,85,2.8,RU,1691260873
235,vallenar,-28.5708,-70.7581,19.22,40,0,3.3,CL,1691261081
236,kharp,66.8014,65.8081,18.6,59,0,2.56,RU,1691261171
237,minas de marcona,-15.2119,-75.1103,17.78,58,7,3.92,PE,1691261320
238,robore,-18.3333,-59.75,36.37,17,2,3.9,BO,1691261320
239,valparaiso,-33.0393,-71.6273,15.56,91,100,5.66,CL,1691261321
240,dhuusamarreeb,5.535,46.3861,27.35,55,61,10.43,SO,1691261321
241,lucapa,-8.4192,20.7447,22.05,27,10,0.49,AO,1691261095
242,iskateley,67.6803,53.1512,19.77,81,17,2.91,RU,1691261036
243,fauske,67.2588,15.3918,13.02,81,100,1.39,NO,1691261321
244,tobruk,32.0836,23.9764,27.44,72,0,2.74,LY,1691261321
245,kiruna,67.8557,20.2251,11.51,62,48,3.09,SE,1691261322
246,klaksvik,62.2266,-6.589,12.51,76,99,0.75,FO,1691261322
247,hilo,19.7297,-155.09,27.93,74,75,2.06,US,1691261322
248,patrocinio,-18.9439,-46.9925,28.79,16,0,2.45,BR,1691261171
249,kavaratti,10.5669,72.642,28.22,77,100,8.59,IN,1691261090
250,brak,27.5496,14.2714,36.65,11,0,2.21,LY,1691261323
251,ganye,8.4333,12.0667,22.76,94,100,0.81,NG,1691261323
252,saipan,15.1355,145.701,28.39,100,0,1.54,MP,1691261048
253,namie,37.4833,141.0,27.06,87,0,2.51,JP,1691261323
254,tadine,-21.55,167.8833,19.99,76,88,9.03,NC,1691261159
255,ballina,-28.8667,153.5667,13.33,88,74,2.23,AU,1691261124
256,canutama,-6.5339,-64.3831,36.32,30,100,1.36,BR,1691261324
257,tefe,-3.3542,-64.7114,32.06,58,40,2.06,BR,1691261324
258,kingston,17.997,-76.7936,35.69,68,20,11.83,JM,1691261074
259,hami,42.8,93.45,29.61,19,3,4.72,CN,1691261325
260,sinjai,-5.1241,120.253,23.68,88,33,1.29,ID,1691261325
261,hargeysa,9.56,44.065,25.84,41,84,9.54,SO,1691261325
262,tralee,52.2704,-9.7026,14.23,89,95,4.04,IE,1691261035
263,nawabganj,24.5911,88.271,27.72,85,100,3.38,BD,1691261312
264,concepcion del oro,24.6333,-101.4167,27.54,17,2,3.61,MX,1691261326
265,kayangel,8.0823,134.7173,27.52,77,100,3.42,PW,1691261116
266,el granada,37.5027,-122.4694,30.24,70,20,2.57,US,1691261092
267,west bay,19.3667,-81.4167,34.04,73,20,4.63,KY,1691261326
268,olyokminsk,60.3736,120.4264,15.68,88,100,1.63,RU,1691261056
269,bandar-e anzali,37.4727,49.4622,27.31,54,33,1.85,IR,1691261327
270,fang,19.9169,99.2145,22.53,98,100,1.0,TH,1691261327
271,inda silase,14.1031,38.2829,15.56,94,100,0.93,ET,1691261327
272,primero de mayo,-32.2552,-58.4228,20.86,57,0,4.55,AR,1691261327
273,fisterra,42.9049,-9.2629,24.3,88,26,8.78,ES,1691261327
274,karratha,-20.7377,116.8463,23.12,42,0,3.78,AU,1691261191
275,xudat,41.631,48.681,25.97,50,0,3.41,AZ,1691261328
276,san antonio de pale,-1.4014,5.6325,22.8,76,44,4.7,GQ,1691261173
277,yuzhno-kurilsk,44.0306,145.8556,13.38,97,100,4.25,RU,1691261328
278,santa marta,11.2408,-74.199,36.03,59,20,3.6,CO,1691261190
279,bontang,0.1333,117.5,26.04,88,3,2.09,ID,1691261328
280,lamu,-2.2717,40.902,25.12,82,100,7.22,KE,1691261329
281,alpine,32.835,-116.7664,36.48,46,0,2.06,US,1691261329
282,gadzhiyevo,69.2551,33.3362,10.79,95,100,6.12,RU,1691261033
283,totness,5.8833,-56.3167,29.41,67,29,4.59,SR,1691261329
284,arkalyk,50.2486,66.9114,22.85,51,81,3.06,KZ,1691261329
285,glace bay,46.1969,-59.957,20.61,81,100,8.75,CA,1691261134
286,kununurra,-15.7667,128.7333,23.99,38,100,3.09,AU,1691261330
287,ushibukamachi,32.1906,130.0228,28.2,77,100,4.52,JP,1691261330
288,eastham,41.8301,-69.9739,27.18,79,40,3.09,US,1691261330
289,kenai,60.5544,-151.2583,16.05,70,100,2.06,US,1691261100
290,hotan,37.0997,79.9269,31.09,24,97,0.48,CN,1691261199
291,sao vicente,-23.9631,-46.3919,32.1,41,0,3.09,BR,1691261064
292,ta`u,-14.2336,-169.5144,26.89,78,99,5.2,AS,1691261112
293,uturoa,-16.7333,-151.4333,25.78,73,5,3.54,PF,1691261084
294,dapa,9.7594,126.0531,27.84,76,83,2.45,PH,1691261332
295,wellington,-41.2866,174.7756,6.59,93,75,4.12,NZ,1691261217
296,kwang binh,17.4833,106.6,27.51,72,100,3.79,VN,1691261332
297,jayapura,-2.5333,140.7,24.66,90,100,2.05,ID,1691261084
298,el calafate,-50.3408,-72.2768,3.12,79,11,4.83,AR,1691261333
299,pariaman,-0.619,100.12,24.03,89,59,1.47,ID,1691261333
300,xiaoweizhai,26.1903,107.5125,21.9,98,98,1.04,CN,1691261333
301,enewetak,11.3474,162.3373,28.43,75,100,6.14,MH,1691261031
302,umm kaddadah,13.6017,26.6876,31.87,44,50,6.83,SD,1691261333
303,east london,-33.0153,27.9116,19.52,55,0,3.09,ZA,1691261043
304,mariental,-24.6333,17.9667,19.68,21,0,4.66,NA,1691261334
305,ancud,-41.8697,-73.8203,9.28,68,34,1.16,CL,1691261088
306,kattivakkam,13.2167,80.3167,30.05,80,99,5.81,IN,1691261334
307,lensk,60.7253,114.9278,16.35,92,94,0.98,RU,1691261334
308,raduzhny,62.0961,77.475,16.79,56,0,2.28,RU,1691261334
309,nelson bay,-32.7167,152.15,16.11,96,99,1.79,AU,1691261335
310,codrington,-38.2667,141.9667,8.37,81,33,1.64,AU,1691261076
311,ust'-ilimsk,58.0006,102.6619,7.06,95,1,1.32,RU,1691261335
312,mildura,-34.2,142.15,3.93,87,5,3.74,AU,1691261335
313,n'zeto,-7.2312,12.8666,21.29,93,4,3.97,AO,1691261335
314,kaspiyskiy,45.3929,47.3707,29.23,47,0,1.67,RU,1691261336
315,khorixas,-20.3667,14.9667,21.34,22,0,3.6,NA,1691261336
316,thinadhoo,0.5333,72.9333,27.82,77,100,4.46,MV,1691261137
317,ambon,-3.6954,128.1814,25.49,95,35,7.51,ID,1691261337
318,ugoofaaru,5.6667,73.0,28.19,77,88,5.77,MV,1691261337
319,harstad,68.799,16.5293,12.86,80,20,5.81,NO,1691261337
320,cockburn town,21.4612,-71.1419,29.22,83,0,8.83,TC,1691261155
321,mount isa,-20.7333,139.5,13.87,58,0,2.57,AU,1691261337
322,leeton,-34.5667,146.4,1.05,92,0,1.49,AU,1691261338
323,aswan,24.0934,32.907,39.61,11,0,4.63,EG,1691261338
324,letlhakane,-21.4167,25.5833,13.86,38,0,4.17,BW,1691261105
325,al jawf,29.5,38.75,30.77,15,0,3.86,SA,1691261173
326,nova sintra,14.8667,-24.7167,22.72,79,5,6.92,CV,1691261338
327,kili,5.6439,169.1211,28.27,79,38,6.52,MH,1691261339
328,cueto,20.6439,-75.9356,35.29,55,8,4.08,CU,1691261339
329,verkhnevilyuysk,63.4453,120.3167,14.07,70,41,2.98,RU,1691261339
330,justo daract,-33.8594,-65.1828,24.94,31,0,4.01,AR,1691261339
331,toliara,-23.35,43.6667,21.03,76,1,1.7,MG,1691261159
332,sheridan,44.8333,-106.9173,15.73,96,100,3.09,US,1691261187
333,ponta pora,-22.5361,-55.7256,30.95,27,0,1.03,BR,1691261340
334,launceston,-41.45,147.1667,6.0,100,100,0.0,AU,1691261195
335,paramaribo,5.8667,-55.1667,28.29,71,64,4.34,SR,1691261340
336,kangding,30.0513,101.9603,16.05,98,100,0.36,CN,1691261341
337,polillo,14.7122,121.9392,27.86,79,83,7.38,PH,1691261341
338,antsiranana,-12.2787,49.2917,23.01,76,8,8.81,MG,1691261341
339,nogliki,51.8333,143.1667,10.82,87,44,1.65,RU,1691261038
340,cidreira,-30.1811,-50.2056,18.67,85,64,3.69,BR,1691261192
341,zhezqazghan,47.7833,67.7667,27.11,36,80,3.52,KZ,1691261342
342,empalme,27.9667,-110.8167,36.86,63,20,9.26,MX,1691261168
343,erenhot,43.6475,111.9767,23.61,46,6,5.81,CN,1691261342
344,pyhajarvi,67.0701,27.2176,12.42,84,93,2.44,FI,1691261342
345,carnarvon,-24.8667,113.6333,18.73,80,2,3.46,AU,1691261108
346,ranot,7.7777,100.3213,26.8,78,100,3.33,TH,1691261343
347,nuku'alofa,-21.1333,-175.2,19.19,94,75,5.66,TO,1691261173
348,belmonte,-15.8631,-38.8828,24.85,58,0,3.12,BR,1691261343
349,duzkoy,40.8728,39.4272,20.21,89,0,1.21,TR,1691261343
350,chizhou,30.6578,117.4831,27.9,82,0,1.56,CN,1691261343
351,mzimba,-11.9,33.6,14.44,78,0,4.07,MW,1691261343
352,martapura,-3.4167,114.85,25.05,100,75,1.03,ID,1691261344
353,lakatoro,-16.0999,167.4164,23.02,87,76,4.53,VU,1691261344
354,humaita,-7.5061,-63.0208,37.33,25,95,1.31,BR,1691261050
355,kindberg,47.5,15.45,15.44,98,100,2.07,AT,1691261344
356,dunedin,-45.8742,170.5036,7.11,79,11,2.24,NZ,1691261178
357,toamasina,-18.1667,49.3833,24.0,78,75,4.63,MG,1691261185
358,lincheng,19.9078,109.6858,27.18,74,100,7.01,CN,1691261198
359,daru,-9.0763,143.2092,23.9,78,94,7.07,PG,1691261345
360,ilebo,-4.3167,20.5833,25.75,32,63,0.39,CD,1691261345
361,sidi qacem,34.2215,-5.7078,43.12,18,0,2.61,MA,1691261345
362,nova vicosa,-17.8919,-39.3719,24.78,57,6,4.43,BR,1691261346
363,vila do maio,15.1333,-23.2167,30.44,79,40,4.6,CV,1691261346
364,lerwick,60.1545,-1.1494,13.0,72,100,1.05,GB,1691261346
365,inari,68.906,27.0288,12.11,93,100,1.23,FI,1691261346
366,nahiyat ash shinafiyah,31.5874,44.6602,39.64,12,0,3.43,IQ,1691261347
367,caazapa,-26.15,-56.4,32.02,24,0,3.21,PY,1691261347
368,camana,-16.6228,-72.7111,19.24,69,6,2.54,PE,1691261347
369,ranikhet,29.65,79.4167,17.51,96,99,0.14,IN,1691261347
370,timbuktu,16.7735,-3.0074,36.91,31,76,4.87,ML,1691261182
371,urengoy,65.9667,78.3667,18.2,57,10,2.99,RU,1691261348
372,lorengau,-2.0226,147.2712,25.97,85,100,4.56,PG,1691261257
373,ulanhot,46.0833,122.0833,13.14,85,2,4.44,CN,1691261348
374,narasapur,16.45,81.6667,28.0,79,6,2.6,IN,1691261349
375,mwinilunga,-11.7358,24.4293,15.67,40,0,2.32,ZM,1691261349
376,paphos,34.7667,32.4167,27.88,74,20,3.09,CY,1691261349
377,port elizabeth,-33.918,25.5701,20.05,82,0,1.54,ZA,1691261051
378,kuching,1.55,110.3333,28.9,88,20,1.54,MY,1691261162
379,sotkamo,64.1333,28.4167,18.01,95,36,1.8,FI,1691261350
380,hamilton,39.1834,-84.5333,30.33,63,0,4.12,US,1691261062
381,greymouth,-42.4667,171.2,8.89,92,100,1.04,NZ,1691261020
382,nemuro,43.3236,145.575,14.69,97,100,3.03,JP,1691261023
383,turpan,42.9333,89.1667,36.41,17,44,2.66,CN,1691261351
384,ujae,8.9322,165.7642,28.65,74,100,7.38,MH,1691261351
385,vikhorevka,56.1201,101.1636,11.77,87,0,1.18,RU,1691261351
386,san pedro,14.35,121.0167,27.97,89,40,3.6,PH,1691261161
387,tiflet,33.8947,-6.3065,28.33,23,0,4.01,MA,1691261352
388,lethem,3.3803,-59.7968,31.65,58,86,0.9,GY,1691261352
389,ha'il,27.5219,41.6907,35.01,15,0,4.12,SA,1691261353
390,noumea,-22.2763,166.4572,20.56,99,26,5.67,NC,1691260902
391,urdinarrain,-32.6857,-58.8932,23.3,58,3,3.87,AR,1691261353
392,tangalle,6.024,80.7911,27.09,83,100,5.4,LK,1691261353
393,shitanjing,39.2342,106.3439,26.33,32,100,1.21,CN,1691261353
394,bhandara,21.1667,79.65,25.61,88,94,3.5,IN,1691261353
395,egilsstadir,65.2653,-14.3948,11.95,58,40,5.66,IS,1691261094
396,skeldon,5.8833,-57.1333,30.18,62,64,3.62,GY,1691261354
397,maceio,-9.6658,-35.7353,27.69,69,40,5.66,BR,1691261354
398,cururupu,-1.8283,-44.8683,29.89,61,76,3.19,BR,1691261183
399,sur,22.5667,59.5289,30.43,62,100,5.62,OM,1691261072
400,betio village,1.358,172.9211,28.02,75,14,5.07,KI,1691261355
401,saint-leu,-21.15,55.2833,21.48,92,38,5.51,RE,1691261355
402,caxito,-8.5785,13.6643,20.81,91,10,1.78,AO,1691261355
403,nusaybin,37.0778,41.2178,36.77,18,0,1.03,TR,1691261355
404,hammerfest,70.6634,23.6821,11.25,82,100,7.72,NO,1691260983
405,kopong,-24.4833,25.8833,13.13,44,0,3.09,BW,1691261356
406,hirara,24.8,125.2833,27.92,94,100,6.17,JP,1691261117
407,beacon square,28.2086,-82.7554,35.55,68,6,4.02,US,1691261356
408,tianpeng,30.9866,103.9393,25.26,88,5,1.53,CN,1691261356
409,turek,52.0155,18.5005,16.58,88,100,5.48,PL,1691261356
410,meadow lake,34.8014,-106.5436,36.09,13,0,3.78,US,1691261357
411,kendari,-3.945,122.4989,22.73,93,7,1.48,ID,1691261186
412,eyl,7.9803,49.8164,25.98,73,81,12.38,SO,1691261201
413,kenora,49.8167,-94.4337,26.54,50,40,5.66,CA,1691261254
414,antsohihy,-14.8796,47.9875,24.31,56,27,4.82,MG,1691261357
415,callao,-12.0667,-77.15,23.16,60,20,5.14,PE,1691261196
416,pikeville,37.4793,-82.5188,32.77,48,0,1.54,US,1691261113
417,san andres,12.5847,-81.7006,32.01,70,20,6.69,CO,1691261269
418,holualoa,19.6228,-155.9522,25.43,77,20,2.57,US,1691261134
419,okoneshnikovo,54.8377,75.0834,19.75,88,100,3.01,RU,1691261358
420,fereydunshahr,32.941,50.121,19.56,23,29,2.73,IR,1691261359
421,thohoyandou,-22.9456,30.485,16.89,47,90,1.08,ZA,1691261359
422,ilula,-7.6766,36.0366,16.3,90,54,3.3,TZ,1691261359
423,ostersund,63.1792,14.6357,14.78,72,100,1.54,SE,1691261359
424,mejit,10.2753,170.8646,27.72,76,100,6.64,MH,1691261067
425,al qadarif,14.0349,35.3834,24.41,77,100,6.05,SD,1691261360
426,esquel,-42.9,-71.3167,5.9,76,19,2.23,AR,1691261360
427,sabaneta,6.15,-75.6,29.31,45,40,6.69,CO,1691261360
428,barrouallie,13.2333,-61.2667,29.79,74,40,4.12,VC,1691261361
429,ust-tsilma,65.441,52.1498,17.51,95,67,2.13,RU,1691261184
430,khuzdar,27.7384,66.6434,29.68,49,7,3.98,PK,1691261361
431,manokwari,-0.8667,134.0833,25.49,78,100,0.63,ID,1691261224
432,tionk essil,12.7856,-16.5217,32.03,81,80,4.19,SN,1691261361
433,qujing,25.4833,103.7833,17.88,94,100,0.23,CN,1691261362
434,melioratorov,57.2107,65.6077,19.24,100,0,2.0,RU,1691261362
435,trairi,-3.2778,-39.2689,28.56,61,68,6.66,BR,1691261167
436,hoa binh,20.8133,105.3383,24.4,92,100,1.55,VN,1691261362
437,onguday,50.75,86.15,13.27,92,38,0.64,RU,1691261362
438,prince rupert,54.3161,-130.3201,20.05,75,100,2.06,CA,1691261203
439,malango,-2.9627,119.9001,19.26,97,88,0.29,ID,1691261363
440,pandan,14.0453,124.1694,27.48,79,9,4.46,PH,1691261178
441,ploudalmezeau,48.5333,-4.65,16.27,82,100,8.23,FR,1691261363
442,kone,-21.0595,164.8658,16.35,88,19,2.5,NC,1691261097
443,zholymbet,51.7433,71.7122,20.34,66,100,1.66,KZ,1691261364
444,gazojak,41.1875,61.4036,31.76,25,56,4.48,TM,1691261364
445,oyama,36.3,139.8,29.77,74,27,3.32,JP,1691261109
446,fort stockton,30.894,-102.8793,38.42,25,0,3.6,US,1691261364
447,tyukalinsk,55.8732,72.1967,18.51,93,98,2.61,RU,1691261364
448,guiuan,11.0333,125.7247,28.72,74,5,4.71,PH,1691261365
449,polyarnyy,69.1989,33.4478,10.94,94,100,6.15,RU,1691261045
450,suva,-18.1416,178.4415,20.71,94,100,2.06,FJ,1691261062
451,basco,20.4487,121.9702,27.82,88,80,13.1,PH,1691261365
452,zhongshu,24.5167,103.7667,17.87,93,100,0.91,CN,1691261365
453,plymouth,41.8334,-70.8328,29.56,68,75,5.66,US,1691261112
454,sawakin,19.1059,37.3321,33.97,53,100,3.0,SD,1691261366
455,hadibu,12.65,54.0333,25.87,78,9,7.83,YE,1691261186
456,changtu,42.7788,124.0955,16.83,85,100,2.15,CN,1691261366
457,pecos,31.4229,-103.4932,39.05,17,0,2.57,US,1691261100
458,timimoun,29.2639,0.231,45.21,10,0,4.12,DZ,1691261367
459,bubaque,11.2833,-15.8333,27.99,78,100,3.07,GW,1691261129
460,itaituba,-4.2761,-55.9836,36.09,46,40,2.57,BR,1691261289
461,van,38.4924,43.3831,25.64,29,40,8.23,TR,1691261367
462,chul'man,56.8479,124.9104,10.92,74,67,1.6,RU,1691261367
463,queenstown,-31.8976,26.8753,13.93,33,0,2.72,ZA,1691261047
464,mugia,43.1041,-9.2179,24.39,88,67,9.0,ES,1691261368
465,ohara,35.25,140.3833,25.69,90,0,4.1,JP,1691261368
466,hasaki,35.7333,140.8333,26.84,90,0,4.87,JP,1691261083
467,alpena,45.0617,-83.4327,23.18,65,40,1.34,US,1691261369
468,rameswaram,9.2833,79.3,27.86,79,98,7.86,IN,1691261369
469,komsomol'skiy,43.9783,46.6985,24.84,54,0,3.43,RU,1691261369
470,badiyah,22.45,58.8,30.36,52,81,2.98,OM,1691261045
471,novomykolayivka,47.9781,35.9102,28.0,42,0,5.96,UA,1691261369
472,puerto armuelles,8.2833,-82.8667,34.99,69,92,3.58,PA,1691261370
473,villa literno,41.0099,14.0805,21.97,76,0,1.03,IT,1691261370
474,durban,-29.8579,31.0292,17.51,84,0,6.21,ZA,1691261216
475,pinotepa nacional,16.3167,-98.0167,33.82,47,100,2.6,MX,1691261141
476,prado,-17.3411,-39.2208,24.04,64,0,3.38,BR,1691261193
477,felege neway,6.3,36.8833,18.01,79,100,0.79,ET,1691261371
478,ojinaga,29.5667,-104.4167,41.98,29,0,2.06,MX,1691261371
479,necochea,-38.5473,-58.7368,13.26,51,100,5.26,AR,1691261371
480,constitucion,-35.3333,-72.4167,12.8,80,100,5.02,CL,1691261294
481,mandiana,10.6333,-8.6833,26.14,82,100,2.56,GN,1691261372
482,antofagasta,-23.65,-70.4,19.6,71,7,3.88,CL,1691261351
483,verdal,63.7933,11.4817,15.02,75,100,1.25,NO,1691261372
484,teguise,29.0605,-13.564,23.12,65,20,10.29,ES,1691261372
485,keetmanshoop,-26.5833,18.1333,20.51,18,4,3.6,NA,1691261372
486,wynyard,-41.0,145.7167,7.21,90,24,2.84,AU,1691261373
487,northam,51.0333,-4.2167,15.92,79,0,10.21,GB,1691261182
488,metro,-5.1131,105.3067,22.44,94,5,1.35,ID,1691261373
489,turuntayevo,52.2,107.6167,17.05,99,100,1.13,RU,1691261373
490,gulu,2.7746,32.299,19.0,91,95,1.04,UG,1691261373
491,bich'vinta,43.1592,40.3378,26.1,61,0,3.4,GE,1691261374
492,igaci,-9.5369,-36.6336,23.4,80,94,3.95,BR,1691261374
493,taishan,22.2514,112.7799,26.65,87,49,2.03,CN,1691261020
494,mammoth lakes,37.6485,-118.9721,25.14,15,0,3.6,US,1691261374
495,ondjiva,-17.0667,15.7333,22.02,23,0,2.06,AO,1691261375
496,uzhur,55.3036,89.8339,9.23,74,0,1.27,RU,1691261375
497,kaharlyk,49.8623,30.8282,24.3,37,0,4.19,UA,1691261375
498,challakere,14.3167,76.65,23.07,83,17,6.86,IN,1691261375
499,bardai,11.65,7.2333,23.03,87,100,3.09,NG,1691261375
500,hacienda huancane,-15.8222,-70.8856,9.22,26,94,5.07,PE,1691261375
501,murghob,38.1702,73.9667,10.46,75,73,2.87,TJ,1691261089
502,samfya,-11.3649,29.5565,18.03,42,4,3.39,ZM,1691261376
503,tocopilla,-22.092,-70.1979,19.78,66,19,3.74,CL,1691261186
504,kalispell,48.1958,-114.3129,26.83,39,20,5.14,US,1691261376
505,prince george,53.9166,-122.753,26.25,44,0,2.57,CA,1691261140
506,natchitoches,31.7668,-93.1335,38.99,35,40,1.54,US,1691261377
507,dahab,28.501,34.5134,34.05,29,0,4.85,EG,1691261377
508,ravar,31.2656,56.8055,31.09,14,0,4.04,IR,1691261377
509,hailey,43.5196,-114.3153,26.05,50,75,0.89,US,1691261377
510,villa de arista,22.65,-100.8333,24.45,36,93,4.55,MX,1691261378
511,junnar,19.2,73.8833,22.01,90,97,4.7,IN,1691261378
512,beyneu,45.3167,55.2,32.76,23,0,4.21,KZ,1691261378
513,fallon,39.4735,-118.7774,28.29,34,0,0.45,US,1691261139
514,xai-xai,-25.0519,33.6442,18.18,77,8,3.15,MZ,1691261037
515,pak phanang,8.3511,100.202,26.95,75,100,1.9,TH,1691261378
516,molde,62.7375,7.1591,13.91,72,100,2.06,NO,1691261379
517,kidal,18.4411,1.4078,30.6,47,100,5.15,ML,1691261379
518,placido de castro,-10.3353,-67.1856,38.45,21,6,0.81,BR,1691261379
519,yinchuan,38.4681,106.2731,27.8,40,94,3.14,CN,1691261379
520,coari,-4.085,-63.1414,36.82,30,61,1.78,BR,1691261379
521,vernon,50.2581,-119.2691,29.05,28,100,1.03,CA,1691261041
522,shevchenko,48.5,35.0,28.36,38,3,4.76,UA,1691261380
523,rabak,13.1809,32.74,25.57,70,100,6.24,SD,1691261380
524,tabou,4.423,-7.3528,24.82,86,100,4.9,CI,1691261161
525,harlingen,26.1906,-97.6961,37.25,47,0,8.75,US,1691261235
526,rumphi,-11.0186,33.8575,15.35,80,0,2.13,MW,1691261381
527,haffouz,35.6324,9.6762,27.57,51,0,8.14,TN,1691261381
528,awjilah,29.1081,21.2869,35.29,18,0,3.87,LY,1691261175
529,yung shue wan,22.2333,114.1167,30.32,84,93,7.45,HK,1691261189
530,kodinar,20.7903,70.7031,26.83,83,100,7.53,IN,1691261381
531,kerikeri,-35.2268,173.9474,7.17,92,38,1.29,NZ,1691261167
532,kill devil hills,36.0307,-75.676,29.0,82,100,5.14,US,1691261294
533,isangel,-19.55,169.2667,21.06,94,20,0.0,VU,1691261382
534,tapejara,-28.0681,-52.0139,26.21,63,0,0.98,BR,1691261382
535,kailua-kona,19.6406,-155.9956,26.98,76,20,2.57,US,1691260790
536,piombino,42.9348,10.5221,25.25,61,1,0.89,IT,1691261382
537,taro,-8.3862,115.28,22.0,97,83,0.69,ID,1691261047
