City_ID,City,Lat,Lng,Max Temp,Humidity,Cloudiness,Wind Speed,Country,Date
0,sandnessjoen,66.0217,12.6316,16.29,88,75,2.57,NO,1691166835
1,blackmans bay,-43.0167,147.3167,11.07,70,97,6.92,AU,1691166835
2,lebu,-37.6167,-73.65,11.96,55,25,7.08,CL,1691166756
3,laurel,39.0993,-76.8483,26.44,77,100,2.06,US,1691166835
4,remire-montjoly,4.9167,-52.2667,32.02,66,75,4.63,GF,1691166835
5,puerto natales,-51.7236,-72.4875,3.92,77,97,7.88,CL,1691166836
6,ta`u,-14.2336,-169.5144,26.7,78,23,7.03,AS,1691166836
7,papatowai,-46.5619,169.4708,3.88,84,25,1.69,NZ,1691166836
8,atchison,39.563,-95.1216,26.02,89,100,2.58,US,1691166836
9,masuguru,-11.3667,38.4167,26.05,39,58,4.27,TZ,1691166837
10,esquel,-42.9,-71.3167,3.82,74,57,3.21,AR,1691166608
11,adamstown,-25.066,-130.1015,18.7,62,94,6.4,PN,1691166837
12,vila velha,-20.3297,-40.2925,24.97,78,20,7.72,BR,1691166837
13,nantucket,41.2835,-70.0995,23.94,61,0,5.14,US,1691166599
14,port blair,11.6667,92.75,29.02,79,40,4.12,IN,1691166837
15,grytviken,-54.2811,-36.5092,-0.13,88,100,5.68,GS,1691166838
16,prado,-17.3411,-39.2208,25.29,63,11,3.87,BR,1691166838
17,waitangi,-43.9535,-176.5597,7.12,94,100,2.68,NZ,1691166838
18,fisterra,42.9049,-9.2629,24.3,69,1,9.8,ES,1691166839
19,yellowknife,62.456,-114.3525,21.29,52,75,3.09,CA,1691166839
20,kerikeri,-35.2268,173.9474,9.95,93,28,1.79,NZ,1691166839
21,ribeira grande,38.5167,-28.7,25.99,69,20,6.69,PT,1691166839
22,bathurst,-33.4166,149.5806,8.79,94,77,0.99,AU,1691166688
23,bredasdorp,-34.5322,20.0403,12.34,86,3,1.19,ZA,1691166840
24,bilibino,68.0546,166.4372,8.78,95,100,2.41,RU,1691166840
25,vorgashor,67.5833,63.95,21.75,64,10,2.22,RU,1691166840
26,port-aux-francais,-49.35,70.2167,1.71,66,100,11.53,TF,1691166840
27,behompy,-23.2496,43.8557,20.24,67,36,1.72,MG,1691166841
28,alice springs,-23.7,133.8833,11.75,62,1,5.66,AU,1691166611
29,valle aurina - ahrntal,46.9962,11.9799,15.42,92,100,2.69,IT,1691166841
30,mezhdurechensk,53.6942,88.0603,17.42,97,86,0.74,RU,1691166841
31,margaret river,-33.95,115.0667,8.81,84,100,3.69,AU,1691166842
32,talnakh,69.4865,88.3972,16.23,53,34,0.15,RU,1691166842
33,dudinka,69.4058,86.1778,16.46,60,38,3.96,RU,1691166843
34,la ronge,55.1001,-105.2842,20.14,73,40,6.17,CA,1691166843
35,labrador city,52.9463,-66.9114,12.95,100,100,3.09,CA,1691166609
36,edinburgh of the seven seas,-37.0676,-12.3116,10.6,72,31,22.43,SH,1691166844
37,jiaozhou,36.2839,120.0033,26.98,92,18,2.6,CN,1691166844
38,pacific grove,36.6177,-121.9166,16.23,92,100,3.58,US,1691166618
39,mollendo,-17.0231,-72.0147,19.55,68,68,2.61,PE,1691166845
40,atafu village,-8.5421,-172.5159,27.97,71,100,3.73,TK,1691166845
41,port alfred,-33.5906,26.891,21.21,54,96,0.45,ZA,1691166846
42,invercargill,-46.4,168.35,2.79,98,51,0.89,NZ,1691166846
43,saint-joseph,-21.3667,55.6167,20.82,84,93,9.01,RE,1691166846
44,isafjordur,66.0755,-23.124,12.02,71,40,4.12,IS,1691166846
45,ilulissat,69.2167,-51.1,8.01,76,40,2.06,GL,1691166846
46,aykhal,66.0,111.5,7.31,97,100,5.0,RU,1691166847
47,katsuren-haebaru,26.3369,127.8719,27.01,100,100,18.53,JP,1691166847
48,loa janan,-0.583,117.095,24.01,96,87,1.31,ID,1691166848
49,murun-kuren,49.6342,100.1625,15.09,76,98,0.51,MN,1691166848
50,katsuura,35.1333,140.3,26.9,85,0,8.11,JP,1691166550
51,kingston,17.997,-76.7936,31.53,66,20,3.6,JM,1691166730
52,san pedro pochutla,15.7333,-96.4667,33.73,56,88,2.57,MX,1691166849
53,ar ruways,24.1103,52.7306,33.7,65,23,4.62,AE,1691166849
54,petropavlovsk-kamchatsky,53.0452,158.6483,9.33,100,40,2.0,RU,1691166849
55,tolanaro,-25.0319,46.9987,20.04,73,20,6.17,MG,1691166850
56,cabo san lucas,22.8909,-109.9124,34.23,65,40,5.66,MX,1691166791
57,tafuna,-14.3358,-170.72,25.97,94,40,4.12,AS,1691166850
58,tiksi,71.6872,128.8694,3.42,95,100,1.09,RU,1691166850
59,albany,42.6001,-73.9662,22.75,86,81,0.45,US,1691166691
60,yei,4.095,30.6779,20.77,89,66,1.19,SS,1691166851
61,edmundston,47.3737,-68.3251,17.64,94,100,6.69,CA,1691166851
62,yamba,-5.9,22.3,29.2,26,27,1.4,CD,1691166851
63,bengkulu,-3.8004,102.2655,25.36,92,35,4.28,ID,1691166852
64,amga,60.8953,131.9608,12.28,76,2,0.56,RU,1691166852
65,saint-leu,-21.15,55.2833,21.46,97,53,9.2,RE,1691166852
66,andergrove,-21.0833,149.1833,18.63,80,70,6.61,AU,1691166852
67,port augusta,-32.5,137.7667,8.51,85,40,3.68,AU,1691166852
68,mittagong,-34.45,150.45,12.33,68,98,1.62,AU,1691166853
69,iqaluit,63.7506,-68.5145,10.39,76,75,2.06,CA,1691166853
70,weno,7.4515,151.8468,25.65,91,100,2.37,FM,1691166853
71,iranshahr,27.2025,60.6848,40.19,24,20,6.17,IR,1691166854
72,saipan,15.1355,145.701,27.39,100,0,1.54,MP,1691166854
73,pisco,-13.7,-76.2167,20.57,73,100,2.06,PE,1691166854
74,bandundu,-3.3167,17.3667,32.02,21,9,1.17,CD,1691166854
75,zouerate,22.7187,-12.4521,42.16,9,4,9.21,MR,1691166854
76,jiagedaqi,50.4167,124.1167,16.04,57,100,1.73,CN,1691166855
77,georgetown,5.4112,100.3354,29.97,87,20,1.54,MY,1691166764
78,sakaiminato,35.55,133.2333,27.99,69,20,1.03,JP,1691166855
79,ust-nera,64.5667,143.2,10.96,54,19,1.92,RU,1691166855
80,aasiaat,68.7098,-52.8699,2.13,85,90,1.35,GL,1691166856
81,susuman,62.7833,148.1667,5.58,73,39,1.69,RU,1691166856
82,saurimo,-9.6608,20.3916,23.89,23,1,2.52,AO,1691166856
83,new norfolk,-42.7826,147.0587,11.72,90,98,5.43,AU,1691166856
84,gore,-46.1028,168.9436,2.35,98,44,1.61,NZ,1691166857
85,uturoa,-16.7333,-151.4333,25.81,75,16,4.85,PF,1691166857
86,denia,38.8408,0.1057,28.75,45,3,4.02,ES,1691166857
87,bardai,11.65,7.2333,27.54,68,83,3.62,NG,1691166857
88,hithadhoo,-0.6,73.0833,27.66,74,78,2.45,MV,1691166858
89,severo-yeniseyskiy,60.3725,93.0408,7.2,73,3,2.69,RU,1691166858
90,bethel,41.3712,-73.414,25.27,77,100,1.54,US,1691166858
91,nanao,37.05,136.9667,28.43,88,11,1.71,JP,1691166858
92,punta arenas,-53.15,-70.9167,2.52,69,79,9.83,CL,1691166730
93,brookings,44.3114,-96.7984,29.14,68,0,0.0,US,1691166856
94,carnarvon,-24.8667,113.6333,17.77,57,0,7.97,AU,1691166860
95,port elizabeth,-33.918,25.5701,21.16,49,0,1.54,ZA,1691166860
96,nuku'alofa,-21.1333,-175.2,21.19,68,75,5.66,TO,1691166860
97,chibougamau,49.9168,-74.3659,17.79,68,75,5.14,CA,1691166740
98,ushuaia,-54.8,-68.3,-1.19,69,20,5.14,AR,1691166860
99,villa gesell,-37.2639,-56.973,15.59,47,0,6.63,AR,1691166861
100,lambarene,-0.7001,10.2406,29.89,47,8,1.7,GA,1691166861
101,hermanus,-34.4187,19.2345,13.78,77,0,5.52,ZA,1691166861
102,stanley,54.868,-1.6985,14.88,83,20,3.09,GB,1691166861
103,greymouth,-42.4667,171.2,5.49,90,78,2.77,NZ,1691166862
104,devils lake,48.1128,-98.8651,22.99,64,0,0.0,US,1691166862
105,grand rapids,42.9634,-85.6681,28.94,53,20,1.54,US,1691166798
106,vilyuchinsk,52.9306,158.4028,10.15,86,3,3.78,RU,1691166863
107,kargasok,59.0556,80.8572,19.51,69,7,3.91,RU,1691166864
108,puerto baquerizo moreno,-0.9,-89.6,24.55,94,100,4.12,EC,1691166864
109,sainte-marie,-20.8968,55.5496,22.07,85,20,9.26,RE,1691166864
110,kodiak,57.79,-152.4072,9.73,93,100,1.54,US,1691166864
111,kapoeta,4.7717,33.5903,27.47,47,52,4.15,SS,1691166865
112,tura,25.5198,90.2201,24.3,97,100,1.64,IN,1691166865
113,viedma,-40.8135,-62.9967,13.26,34,0,7.08,AR,1691166865
114,jamestown,42.097,-79.2353,26.68,64,75,5.14,US,1691166767
115,kapuskasing,49.4169,-82.4331,17.05,72,40,3.6,CA,1691166866
116,walvis bay,-22.9575,14.5053,16.53,67,0,2.57,NA,1691166866
117,vung tau,10.346,107.0843,26.83,86,70,5.39,VN,1691166867
118,east london,-33.0153,27.9116,19.52,63,0,2.06,ZA,1691166867
119,kita,13.0349,-9.4895,35.64,36,16,0.99,ML,1691166868
120,guerrero negro,27.9769,-114.0611,23.91,60,4,6.85,MX,1691166868
121,hotan,37.0997,79.9269,30.83,22,2,1.65,CN,1691166869
122,ubon ratchathani,15.1667,105.1667,24.94,95,100,2.72,TH,1691166869
123,jayapura,-2.5333,140.7,22.66,85,97,2.26,ID,1691166869
124,satsuma,30.8532,-88.0561,36.01,36,0,1.97,US,1691166870
125,port douglas,-16.4833,145.4667,21.55,77,93,6.59,AU,1691166872
126,island harbour,50.724,-1.2758,19.54,69,100,0.89,GB,1691166872
127,cidreira,-30.1811,-50.2056,20.02,79,70,1.42,BR,1691166731
128,lillehammer,61.1146,10.4674,17.97,56,99,1.29,NO,1691166873
129,nova sintra,14.8667,-24.7167,24.1,84,59,3.48,CV,1691166873
130,vanimo,-2.6741,141.3028,23.66,86,98,2.29,PG,1691166874
131,college,64.8569,-147.8028,21.78,72,75,0.0,US,1691166874
132,las khorey,11.1595,48.1967,33.93,46,97,4.3,SO,1691166874
133,lihue,21.9789,-159.3672,25.77,77,40,5.66,US,1691166874
134,lompoc,34.6391,-120.4579,24.36,54,25,4.68,US,1691166875
135,puerto ayora,-0.7393,-90.3518,27.98,94,40,2.24,EC,1691166875
136,bibbiena,43.6965,11.8135,16.37,97,100,2.08,IT,1691166875
137,shakawe,-18.3667,21.85,18.52,29,0,2.73,BW,1691166875
138,zambezi,-13.5432,23.1047,19.77,27,0,2.57,ZM,1691166881
139,novyy urgal,51.0736,132.5642,12.31,74,100,1.64,RU,1691166737
140,wailua homesteads,22.0669,-159.378,25.44,78,40,5.66,US,1691166881
141,hawaiian paradise park,19.5933,-154.9731,21.69,79,100,2.57,US,1691166881
142,whitehorse,60.7161,-135.0538,16.01,72,40,4.12,CA,1691166882
143,beltran,-27.8291,-64.061,23.9,37,0,2.73,AR,1691166882
144,qamdo,31.1667,97.2333,7.42,82,91,1.21,CN,1691166883
145,belomorsk,64.5232,34.7668,18.89,90,92,2.64,RU,1691166883
146,girvan,55.2426,-4.8555,17.0,76,91,4.49,GB,1691166884
147,chadan,51.2833,91.5833,15.5,85,94,2.17,RU,1691166884
148,tazovsky,67.4667,78.7,17.33,65,3,3.81,RU,1691166884
149,copiapo,-27.3667,-70.3333,13.83,39,28,3.3,CL,1691166730
150,dois vizinhos,-25.7336,-53.0572,28.01,34,0,0.65,BR,1691166884
151,tomohon,1.3346,124.8392,19.52,93,43,1.49,ID,1691166884
152,utrik,11.2278,169.8474,28.27,76,98,7.17,MH,1691166885
153,queenstown,-31.8976,26.8753,12.69,41,83,2.73,ZA,1691166885
154,hammerfest,70.6634,23.6821,17.25,94,75,1.54,NO,1691166885
155,zagora,30.3484,-5.8365,43.12,4,0,8.0,MA,1691166885
156,fale old settlement,-9.3852,-171.2468,27.65,75,82,5.36,TK,1691166886
157,chonchi,-42.6128,-73.8092,9.51,69,26,1.32,CL,1691166767
158,crane,31.3974,-102.3501,34.05,32,3,8.03,US,1691166886
159,nogliki,51.8333,143.1667,10.82,87,4,3.11,RU,1691166886
160,minas de marcona,-15.2119,-75.1103,18.26,54,10,3.44,PE,1691166886
161,lorengau,-2.0226,147.2712,27.01,82,90,4.46,PG,1691166886
162,dwarka,22.2394,68.9678,27.54,84,100,8.49,IN,1691166887
163,callao,-12.0667,-77.15,21.16,68,100,4.12,PE,1691166398
164,boa vista,2.8197,-60.6733,29.99,62,75,2.06,BR,1691166887
165,jabat,7.75,168.9751,28.32,76,95,5.01,MH,1691166887
166,ulsan,35.5372,129.3167,25.61,86,13,0.93,KR,1691166888
167,bardsir,29.9227,56.5743,25.63,11,10,4.31,IR,1691166888
168,rio grande,-32.035,-52.0986,19.06,74,65,1.17,BR,1691166888
169,ola,59.5833,151.2833,16.19,68,100,2.27,RU,1691166888
170,lerwick,60.1545,-1.1494,13.0,73,100,5.88,GB,1691166888
171,ujae,8.9322,165.7642,28.35,78,59,5.49,MH,1691166888
172,salinopolis,-0.6136,-47.3561,28.48,74,27,4.38,BR,1691166889
173,rongelap,11.1635,166.8941,28.47,77,100,6.35,MH,1691166889
174,novyy urengoy,66.0833,76.6333,20.06,42,6,3.8,RU,1691166889
175,hami,42.8,93.45,30.83,17,3,2.96,CN,1691166889
176,vadso,70.0744,29.7487,21.49,88,40,4.12,NO,1691166889
177,hilo,19.7297,-155.09,27.93,77,100,2.57,US,1691166891
178,north bend,43.4065,-124.2243,20.69,77,100,3.6,US,1691166891
179,zbaszyn,52.2509,15.9252,23.99,41,0,3.09,PL,1691166892
180,qaqortoq,60.7167,-46.0333,7.06,81,89,3.67,GL,1691166892
181,nemuro,43.3236,145.575,14.81,98,99,7.02,JP,1691166892
182,west island,-12.1568,96.8225,24.99,88,75,7.72,CC,1691166842
183,tannum sands,-23.9504,151.3693,16.94,63,100,3.09,AU,1691166893
184,sovetskaya gavan',48.9723,140.2878,12.61,77,97,1.08,RU,1691166893
185,el granada,37.5027,-122.4694,21.03,85,100,3.09,US,1691166893
186,bodaybo,57.8506,114.1933,16.87,96,100,0.92,RU,1691166893
187,patterson,37.4716,-121.1297,22.08,38,0,1.83,US,1691166894
188,ancud,-41.8697,-73.8203,8.83,68,18,1.45,CL,1691166894
189,sarishabari,24.7333,89.8333,28.78,82,100,6.5,BD,1691166894
190,iskateley,67.6803,53.1512,24.58,60,40,4.22,RU,1691166895
191,karratha,-20.7377,116.8463,22.53,57,0,2.86,AU,1691166895
192,alofi,-19.0595,-169.9187,21.94,94,100,5.66,NU,1691166895
193,camiri,-20.05,-63.5167,30.88,25,0,3.09,BO,1691166895
194,kidal,18.4411,1.4078,40.5,21,99,4.47,ML,1691166896
195,cumbal,0.9088,-77.7915,13.6,67,75,5.66,CO,1691166896
196,malango,-2.9627,119.9001,20.15,97,79,0.51,ID,1691166896
197,praia da vitoria,38.7333,-27.0667,26.53,65,20,4.82,PT,1691166896
198,port saint john's,-31.6229,29.5448,19.99,51,90,3.53,ZA,1691166896
199,san patricio,28.017,-97.5169,35.05,38,13,6.26,US,1691166897
200,tabora,-5.0167,32.8,25.88,34,20,5.14,TZ,1691166769
201,palmas,-10.2128,-48.3603,33.93,36,40,2.57,BR,1691166897
202,fort bragg,35.139,-79.006,26.01,91,100,2.85,US,1691166897
203,mount isa,-20.7333,139.5,19.87,49,100,3.09,AU,1691166643
204,avarua,-21.2078,-159.775,22.03,83,100,1.03,CK,1691166897
205,aracoiaba,-4.3711,-38.8142,34.9,29,6,3.01,BR,1691166898
206,tual,-5.6667,132.75,26.05,81,98,8.07,ID,1691166898
207,kharp,66.8014,65.8081,21.53,68,11,2.45,RU,1691166898
208,rikaze,29.25,88.8833,14.53,67,100,1.69,CN,1691166898
209,colares,38.7992,-9.4469,30.82,44,0,10.29,PT,1691166899
210,gebeit,21.0667,36.3167,33.6,31,57,5.6,SD,1691166899
211,sitka,57.0531,-135.33,13.94,94,20,0.0,US,1691166899
212,uyskoye,54.3775,60.0047,18.24,81,83,1.81,RU,1691166899
213,galliano,29.4422,-90.2992,35.0,55,40,3.09,US,1691166900
214,bukittinggi,-0.3091,100.3706,19.1,97,45,0.45,ID,1691166905
215,piazza armerina,37.3859,14.3672,31.42,32,0,5.27,IT,1691166905
216,badger,64.8,-147.5333,21.74,73,75,0.0,US,1691166905
217,barabinsk,55.3571,78.357,20.77,78,99,2.03,RU,1691166906
218,yarmouth,41.7057,-70.2286,26.19,61,20,3.13,US,1691166906
219,kiunga,-6.1219,141.2906,22.24,91,96,1.24,PG,1691166906
220,rudsar,37.1376,50.288,28.99,65,21,2.54,IR,1691166906
221,paredon,16.0333,-93.8667,32.0,60,47,3.07,MX,1691166906
222,ouarzazat,30.9189,-6.8934,41.16,3,0,4.12,MA,1691166907
223,arteche,12.2645,125.4048,25.93,89,58,2.59,PH,1691166907
224,wittingen,52.7269,10.7361,21.46,70,91,3.58,DE,1691166908
225,longyearbyen,78.2186,15.6401,13.91,88,75,3.6,SJ,1691166650
226,port lincoln,-34.7333,135.8667,11.68,59,69,4.66,AU,1691166908
227,thompson,55.7435,-97.8558,18.09,82,100,1.03,CA,1691166908
228,kailua-kona,19.6406,-155.9956,23.61,75,0,2.57,US,1691166833
229,fonte boa,-2.4959,-66.2662,34.63,44,25,0.97,BR,1691166909
230,dhuusamarreeb,5.535,46.3861,29.26,45,99,11.0,SO,1691166909
231,champerico,14.3,-91.9167,30.3,69,36,1.56,GT,1691166910
232,mohr,54.3528,9.7167,21.13,69,75,7.2,DE,1691166910
233,pindushi,62.9152,34.58,18.67,87,77,2.23,RU,1691166910
234,ust'-ordynskiy,52.805,104.7508,16.71,82,100,2.11,RU,1691166813
235,pingshan,22.9938,114.7131,27.2,90,66,1.1,CN,1691166911
236,portland,45.5234,-122.6762,20.9,74,75,2.06,US,1691166566
237,canto do buriti,-8.11,-42.9444,36.4,23,6,3.09,BR,1691166911
238,shizunai-furukawacho,42.3339,142.3669,22.16,94,37,1.42,JP,1691166912
239,nuuk,64.1835,-51.7216,7.34,100,100,7.72,GL,1691166912
240,maumere,-8.6199,122.2111,24.69,77,4,1.28,ID,1691166912
241,suonenjoki,62.6167,27.1333,20.67,91,67,3.41,FI,1691166913
242,machico,32.7,-16.7667,27.06,67,40,6.17,PT,1691166913
243,susanville,40.4163,-120.653,24.34,39,0,0.89,US,1691166913
244,jeremoabo,-10.075,-38.4808,29.2,34,3,4.97,BR,1691166913
245,termas de rio hondo,-27.4998,-64.8604,21.75,44,0,1.39,AR,1691166914
246,lautoka,-17.6167,177.4667,20.92,78,100,3.09,FJ,1691166914
247,adam,22.3756,57.5233,37.21,31,100,4.06,OM,1691166914
248,sorokino,53.75,84.9167,18.69,90,98,1.99,RU,1691166916
249,south hedland,-20.4089,118.5983,21.96,64,2,2.06,AU,1691166916
250,mount pearl,47.5166,-52.7813,21.92,66,20,4.12,CA,1691166916
251,zhangye,38.9342,100.4517,25.85,34,44,4.17,CN,1691166916
252,olonkinbyen,70.9221,-8.7187,3.65,92,100,10.68,SJ,1691166917
253,kittila,67.6647,24.8936,20.08,73,20,0.51,FI,1691166917
254,zest'aponi,42.11,43.0525,23.06,94,16,0.88,GE,1691166917
255,luderitz,-26.6481,15.1594,14.1,72,2,1.45,NA,1691166918
256,burutu,5.3509,5.5076,26.55,77,78,5.33,NG,1691166918
257,katabu,-4.9333,122.5167,23.93,90,7,2.4,ID,1691166919
258,coquimbo,-29.9533,-71.3436,14.85,82,100,1.54,CL,1691166919
259,hadibu,12.65,54.0333,26.2,74,99,8.21,YE,1691166919
260,aral,40.5156,81.2636,33.77,18,33,2.04,CN,1691166919
261,qarqaraly,49.4058,75.4742,19.91,56,76,2.55,KZ,1691166920
262,keflavik,64.0049,-22.5624,13.95,76,75,3.09,IS,1691166920
263,san julian,21.0167,-102.1667,22.07,55,100,4.21,MX,1691166920
264,dalbandin,28.8947,64.4101,35.2,7,19,2.37,PK,1691166921
265,nagqu,31.5,92.0,7.94,89,100,1.81,CN,1691166921
266,pimenta bueno,-11.6725,-61.1936,39.53,15,0,0.15,BR,1691166921
267,codrington,-38.2667,141.9667,10.74,59,95,7.67,AU,1691166921
268,tidjikja,18.5564,-11.4271,43.02,7,40,3.12,MR,1691166923
269,juan de acosta,10.8281,-75.0334,32.77,53,2,3.31,CO,1691166923
270,mahina,-17.5065,-149.489,21.87,83,20,2.06,PF,1691166923
271,luorong,24.4058,109.6086,26.5,92,77,1.42,CN,1691166923
272,lala,7.9745,123.7458,24.58,97,73,0.2,PH,1691166924
273,emerald,-23.5333,148.1667,13.39,71,0,3.51,AU,1691166924
274,newman,37.3138,-121.0208,23.19,36,0,1.53,US,1691166924
275,poxoreo,-15.8372,-54.3892,36.09,14,53,2.42,BR,1691166924
276,boromo,11.75,-2.9333,35.68,37,44,4.78,BF,1691166924
277,benghazi,32.1167,20.0667,28.83,67,0,5.67,LY,1691166748
278,floro,61.5996,5.0328,15.04,72,40,9.26,NO,1691166925
279,hobyo,5.3505,48.5268,25.43,81,48,12.86,SO,1691166925
280,suhbaatar,50.2314,106.2078,16.72,89,96,1.78,MN,1691166925
281,pangai,-19.8,-174.35,22.39,68,100,12.28,TO,1691166926
282,bure,10.7,37.0667,15.19,93,99,1.35,ET,1691166926
283,jiazi,22.8779,116.067,29.43,80,65,7.66,CN,1691166927
284,schweizer-reneke,-27.1887,25.3293,9.47,48,88,1.38,ZA,1691166927
285,kaohsiung,22.6163,120.3133,29.46,86,75,2.24,TW,1691166920
286,la sarre,48.8002,-79.1996,21.28,45,29,5.27,CA,1691166889
287,kichmengskiy gorodok,59.9816,45.7854,20.28,81,71,2.56,RU,1691166928
288,souillac,-20.5167,57.5167,21.21,94,75,7.2,MU,1691166928
289,cockburn town,21.4612,-71.1419,30.98,66,40,4.63,TC,1691166928
290,constantia,44.1833,28.65,27.61,75,0,4.84,RO,1691166929
291,luuq,3.7938,42.5445,30.4,38,92,8.0,SO,1691166929
292,fort st. john,56.2499,-120.8529,14.94,82,40,3.09,CA,1691166929
293,northam,51.0333,-4.2167,16.48,82,100,4.41,GB,1691166930
294,bikenibeu village,1.3673,173.1241,26.98,89,75,0.51,KI,1691166930
295,darhan,49.4867,105.9228,18.33,79,100,1.07,MN,1691166930
296,anadyr,64.75,177.4833,10.28,87,75,5.81,RU,1691166932
297,tinghir,31.5157,-5.5343,37.8,7,0,5.99,MA,1691166932
298,dongola,19.1667,30.4833,39.66,22,14,3.6,SD,1691166932
299,moyale,3.5167,39.0584,23.89,43,99,5.17,KE,1691166933
300,quang ngai,15.1167,108.8,26.73,73,100,2.8,VN,1691166933
301,kamaishi,39.2667,141.8833,25.2,80,0,2.13,JP,1691166934
302,enewetak,11.3474,162.3373,28.09,78,80,5.27,MH,1691166934
303,bugul'ma,54.55,52.8,21.32,68,40,1.0,RU,1691166935
304,nadi,-17.8,177.4167,21.0,78,100,3.09,FJ,1691166664
305,kazaure,12.6513,8.4162,33.81,41,73,1.47,NG,1691166935
306,bel ombre,-4.6167,55.4167,25.91,78,40,7.2,SC,1691166935
307,kievka,50.2619,71.5514,21.57,56,31,0.98,KZ,1691166935
308,tadine,-21.55,167.8833,18.58,91,100,11.29,NC,1691166936
309,luga,58.7372,29.8453,21.12,67,59,4.12,RU,1691166683
310,illizi,26.4833,8.4667,43.89,8,0,7.68,DZ,1691166936
311,rabaul,-4.1967,152.1721,25.88,81,100,5.69,PG,1691166936
312,mahibadhoo,3.7833,72.9667,28.17,74,80,3.24,MV,1691166936
313,i-n-salah,27.1935,2.4607,46.65,6,0,6.0,DZ,1691166937
314,alpine,32.835,-116.7664,27.42,59,0,0.0,US,1691166937
315,sinabang,2.4803,96.3801,27.06,78,100,0.59,ID,1691166938
316,sao gabriel da cachoeira,-0.1303,-67.0892,29.89,70,40,2.06,BR,1691166934
317,inhambane,-23.865,35.3833,19.99,88,75,3.09,MZ,1691166938
318,esmeraldas,-19.7625,-44.3139,28.17,14,0,2.53,BR,1691166732
319,howrah,22.5892,88.3103,30.0,79,75,4.12,IN,1691166938
320,kristiansund,63.1115,7.732,15.03,88,75,2.57,NO,1691166939
321,usogorsk,63.4106,48.6872,22.09,60,95,2.24,RU,1691166939
322,beyneu,45.3167,55.2,33.76,22,9,7.41,KZ,1691166939
323,hafar al-batin,28.4328,45.9708,42.32,9,0,3.09,SA,1691166939
324,chernomorskoye,45.5039,32.6997,25.38,71,0,1.65,UA,1691166940
325,veraval,20.9,70.3667,26.96,88,100,7.79,IN,1691166940
326,jiwani,25.05,61.7417,27.59,84,92,3.89,PK,1691166941
327,road town,18.4167,-64.6167,31.05,84,40,5.14,VG,1691166941
328,el calafate,-50.3408,-72.2768,2.97,73,1,5.03,AR,1691166928
329,altay,47.8667,88.1167,19.45,42,1,2.78,CN,1691166941
330,den burg,53.0542,4.7972,19.98,78,40,5.14,NL,1691166941
331,ar rutbah,33.0381,40.2848,34.85,18,0,4.23,IQ,1691166942
332,afaahiti,-17.75,-149.2833,20.93,79,27,5.62,PF,1691166942
333,al burayqah,30.4062,19.5739,28.86,63,0,5.51,LY,1691166942
334,kurtamysh,54.9103,64.4319,22.3,58,60,2.54,RU,1691166942
335,pangoa,-12.1167,-73.0,31.28,36,15,2.21,PE,1691166943
336,baruun-urt,46.6806,113.2792,10.65,91,25,4.07,MN,1691166943
337,castillos,-34.1667,-53.8333,16.11,54,73,1.49,UY,1691166943
338,buala,-8.145,159.5921,25.6,88,91,3.73,SB,1691166943
339,acarau,-2.8856,-40.12,31.0,54,16,8.12,BR,1691166645
340,sant lluis,39.8526,4.2594,24.22,53,20,7.2,ES,1691166943
341,poli,-3.3333,36.8,19.15,63,75,5.14,TZ,1691166944
342,yigo village,13.5361,144.8886,27.4,87,100,2.06,GU,1691166945
343,fortuna,40.5982,-124.1573,16.19,94,75,1.54,US,1691166945
344,sao jose da coroa grande,-8.8978,-35.1478,26.34,56,8,4.3,BR,1691166945
345,cidade velha,14.9167,-23.6167,29.26,74,20,4.63,CV,1691166945
346,vermillion,42.7794,-96.9292,28.22,62,100,3.93,US,1691166946
347,navia,43.5354,-6.7194,19.98,62,6,2.69,ES,1691166946
348,caala,-12.8525,15.5606,24.74,22,2,1.61,AO,1691166946
349,chinde,26.8418,88.0763,19.21,91,100,1.16,NP,1691166946
350,port shepstone,-30.7414,30.455,18.79,54,98,3.57,ZA,1691166946
351,manokwari,-0.8667,134.0833,25.93,75,100,3.41,ID,1691166947
352,hamilton,39.1834,-84.5333,31.45,55,0,1.34,US,1691166631
353,yorkton,51.2167,-102.4677,23.91,64,20,5.14,CA,1691166947
354,tonacatepeque,13.7811,-89.1186,29.27,71,0,1.54,SV,1691166948
355,cartagena,10.3997,-75.5144,31.79,74,20,6.17,CO,1691166728
356,bogale,16.2833,95.4,26.02,90,76,3.58,MM,1691166948
357,kruisfontein,-34.0033,24.7314,19.38,73,70,2.33,ZA,1691166948
358,al fuwayliq,26.4432,43.2534,35.12,11,0,4.94,SA,1691166949
359,st. john's,47.5649,-52.7093,22.6,67,20,4.12,CA,1691166772
360,juan griego,11.0817,-63.9655,31.11,56,0,3.68,VE,1691166949
361,taoudenni,22.6783,-3.9836,48.44,6,9,4.59,ML,1691166949
362,margate,51.3813,1.3862,18.16,87,22,0.45,GB,1691166637
363,shalqar,47.8333,59.6,30.95,29,99,0.39,KZ,1691166950
364,sydney mines,46.2367,-60.2177,24.16,57,75,6.69,CA,1691166950
365,nova vicosa,-17.8919,-39.3719,25.99,62,5,3.69,BR,1691166950
366,tralee,52.2704,-9.7026,15.14,77,75,4.63,IE,1691166952
367,saldanha,-33.0117,17.9442,14.03,86,0,3.31,ZA,1691166952
368,cill airne,52.05,-9.5167,15.03,77,75,4.63,IE,1691166952
369,brandon,27.9378,-82.2859,34.58,69,0,2.57,US,1691166952
370,cambria,35.5641,-121.0808,20.9,58,0,4.14,US,1691166952
371,prince rupert,54.3161,-130.3201,17.05,85,0,1.54,CA,1691166909
372,mafinga,-7.25,35.0667,22.72,39,50,5.29,TZ,1691166953
373,laguna,38.421,-121.4238,26.16,69,0,2.57,US,1691166953
374,vernon,50.2581,-119.2691,22.39,36,0,1.54,CA,1691166716
375,namibe,-15.1961,12.1522,18.5,77,6,4.45,AO,1691166752
376,airuk,7.2772,168.8203,28.42,77,75,5.47,MH,1691166954
377,oranjemund,-28.55,16.4333,13.44,82,2,1.73,NA,1691166954
378,alaghsas,17.0187,8.0168,37.94,39,20,4.63,NE,1691166806
379,petauke,-14.2426,31.3253,18.17,39,0,2.74,ZM,1691166954
380,kargopol',61.5071,38.9456,17.65,96,99,2.26,RU,1691166954
381,el bauga,18.262,33.9081,35.68,32,16,5.58,SD,1691166955
382,reggane,26.7158,0.1714,47.97,5,1,2.56,DZ,1691166955
383,zimovniki,47.1483,42.4633,30.59,31,36,3.16,RU,1691166955
384,kalmunai,7.4167,81.8167,28.36,78,94,1.85,LK,1691166912
385,hirara,24.8,125.2833,27.15,100,75,6.17,JP,1691166956
386,chiredzi,-21.05,31.6667,17.64,51,41,2.32,ZW,1691166956
387,hovd,48.0056,91.6419,20.89,39,4,0.89,MN,1691166956
388,udachny,66.4167,112.4,9.14,93,100,4.03,RU,1691166956
389,horta,38.5333,-28.6333,25.57,70,20,6.69,PT,1691166956
390,entebbe,0.0644,32.4469,23.18,73,20,5.66,UG,1691166957
391,drawsko pomorskie,53.5306,15.8097,20.04,73,93,2.33,PL,1691166957
392,san antonio de pale,-1.4014,5.6325,22.84,77,43,4.13,GQ,1691166957
393,puerto lempira,15.2667,-83.7667,31.08,66,40,4.12,HN,1691166957
394,colonia,50.9333,6.95,21.65,67,40,5.14,DE,1691166957
395,kenai,60.5544,-151.2583,13.05,82,0,3.09,US,1691166958
396,sebring,27.4956,-81.4409,34.26,67,0,3.09,US,1691166911
397,caleta de carquin,-11.0925,-77.6267,21.25,67,11,5.07,PE,1691166958
398,eirunepe,-6.6603,-69.8736,35.96,33,0,1.56,BR,1691166958
399,kuressaare,58.2481,22.5039,19.97,87,40,7.6,EE,1691166958
400,tome acu,-2.4189,-48.1522,36.2,34,15,1.52,BR,1691166959
401,dahab,28.501,34.5134,35.08,25,0,3.37,EG,1691166959
402,beaufort west,-32.3567,22.583,17.49,42,97,1.98,ZA,1691166959
403,richards bay,-28.783,32.0377,19.61,71,20,6.77,ZA,1691166959
404,happy valley-goose bay,53.3168,-60.3315,20.17,64,75,4.63,CA,1691166959
405,sigaboy,6.6541,126.0727,27.27,85,62,3.14,PH,1691166960
406,barabai,-2.5833,115.3833,24.01,87,5,0.8,ID,1691166960
407,akjoujt,19.6969,-14.4164,44.29,7,5,5.51,MR,1691166960
408,quepos,9.4236,-84.1652,30.08,71,22,2.3,CR,1691166960
409,santa maria,-29.6842,-53.8069,19.61,77,20,2.57,BR,1691166681
410,kas,36.2018,29.6377,30.92,53,0,4.29,TR,1691166961
411,bebedouro,-20.9494,-48.4792,30.59,20,0,1.06,BR,1691166940
412,howard springs,-12.497,131.047,25.95,48,77,2.64,AU,1691166962
413,gadzhiyevo,69.2551,33.3362,20.22,69,99,6.74,RU,1691166795
414,thunder bay,48.4001,-89.3168,21.99,64,20,3.09,CA,1691166676
415,niebull,54.7866,8.8285,17.98,69,78,6.55,DE,1691166962
416,port mathurin,-19.6833,63.4167,23.25,76,14,11.17,MU,1691166963
417,sinop,41.7711,34.8709,19.84,82,0,1.97,TR,1691166963
418,marsh harbour,26.5412,-77.0636,29.07,69,26,4.5,BS,1691166923
419,geraldton,-28.7667,114.6,6.23,93,1,2.06,AU,1691166682
420,zaozersk,69.4005,32.4476,19.91,77,98,3.84,RU,1691166964
421,kandahar,31.0,65.75,31.37,8,0,5.01,AF,1691166964
422,lat yao,15.751,99.7893,25.99,72,100,3.13,TH,1691166964
423,uige,-7.6087,15.0613,27.28,21,2,1.67,AO,1691166965
424,adana,36.985,35.2881,31.29,74,20,4.63,TR,1691166762
425,la passe,45.5549,-0.8967,21.13,60,48,7.77,FR,1691166965
426,kirov,58.5966,49.6601,21.04,69,80,1.92,RU,1691166965
427,gurupi,-11.7292,-49.0686,38.19,18,30,0.61,BR,1691166965
428,melfort,52.8667,-104.6177,20.07,68,27,4.12,CA,1691166966
429,oak harbor,48.2932,-122.6432,22.28,85,40,4.63,US,1691166966
430,gobabis,-22.45,18.9667,18.19,26,2,3.13,NA,1691166966
431,selma,36.5708,-119.6121,29.24,68,0,3.6,US,1691166966
432,trevelin,-43.0858,-71.4639,8.71,72,78,2.27,AR,1691166966
433,sierra grande,-41.606,-65.3557,13.22,26,1,9.49,AR,1691166967
434,ulaangom,49.9811,92.0667,18.67,61,100,1.58,MN,1691166967
435,refahiye,39.9008,38.7667,18.85,58,0,3.09,TR,1691166967
436,santa rosa,14.3122,121.1114,27.99,93,100,5.38,PH,1691166967
437,sayansk,54.1088,102.1648,17.18,91,100,1.37,RU,1691166967
438,chita,52.0333,113.55,8.94,93,18,1.0,RU,1691166744
439,patnanungan,14.7833,122.1833,28.37,80,100,9.86,PH,1691166968
440,show low,34.2542,-110.0298,28.34,18,0,0.45,US,1691166968
441,ustyuzhna,58.8394,36.4321,20.06,76,13,2.48,RU,1691166968
442,isla mujeres,21.2311,-86.731,32.03,71,18,3.72,MX,1691166969
443,luanda,-8.8368,13.2343,24.0,73,7,6.17,AO,1691166709
444,san luis de la loma,17.2706,-100.8939,26.44,88,100,3.85,MX,1691166969
445,bom jardim,-7.7958,-35.5872,28.74,41,41,5.38,BR,1691166969
446,hacienda huancane,-15.8222,-70.8856,8.71,28,4,0.52,PE,1691166974
447,mar del plata,-38.0023,-57.5575,14.41,38,0,4.12,AR,1691166975
448,qoryooley,1.7878,44.53,24.11,84,85,6.58,SO,1691166975
449,praia,14.9215,-23.5087,29.3,74,20,4.63,CV,1691166975
450,nabire,-3.3667,135.4833,23.06,94,100,1.8,ID,1691166975
451,latacunga,-0.9333,-78.6167,16.19,67,75,7.2,EC,1691166878
452,ust'-barguzin,53.45,108.9833,14.35,84,66,2.45,RU,1691166976
453,puerto penasco,31.3167,-113.5333,31.62,78,0,2.68,MX,1691166976
454,mount gambier,-37.8333,140.7667,9.16,70,93,3.79,AU,1691166976
455,wuyishan,28.0047,117.8114,26.81,89,3,1.67,CN,1691166976
456,vilyuysk,63.7553,121.6247,15.47,68,100,2.58,RU,1691166976
457,haiku-pauwela,20.9219,-156.3051,23.91,78,20,4.12,US,1691166977
458,la reforma,25.0833,-108.05,32.72,61,1,3.07,MX,1691166977
459,dryden,49.7833,-92.7503,23.16,56,0,1.54,CA,1691166977
460,kegeyli shahar,42.7767,59.6078,35.05,23,9,8.5,UZ,1691166977
461,macau,22.2006,113.5461,31.03,84,20,5.14,MO,1691166697
462,mulayjah,27.271,48.4242,36.66,10,0,1.08,SA,1691166978
463,nalgonda,17.05,79.2667,27.26,71,70,3.04,IN,1691166872
464,jalpatagua,14.1417,-90.0086,30.59,62,65,2.85,GT,1691166978
465,opuwo,-18.0607,13.84,22.56,19,3,3.08,NA,1691166979
466,victoria falls,-17.9235,25.843,16.99,43,0,1.77,ZW,1691166979
467,masterton,-40.9597,175.6575,6.6,97,82,1.87,NZ,1691166979
468,ivdel',60.6911,60.4206,17.81,95,84,2.08,RU,1691166745
469,tchintabaraden,15.8969,5.7985,37.97,28,27,2.25,NE,1691166980
470,kolonia,50.9333,6.95,21.9,67,40,5.14,DE,1691166807
471,adrasmon,40.6472,69.9856,22.9,19,13,3.4,TJ,1691166980
472,doka,13.5167,35.7667,27.02,67,23,2.41,SD,1691166981
473,minas,-34.3759,-55.2377,16.78,43,49,3.36,UY,1691166981
474,moyobamba,-6.05,-76.9667,30.68,36,6,1.01,PE,1691166981
475,tsengel,49.4783,100.8894,15.21,74,99,0.76,MN,1691166981
476,vozhega,60.4725,40.2213,18.47,95,75,2.29,RU,1691166982
477,laminusa,5.5549,120.9136,28.81,76,3,3.99,PH,1691166982
478,galle,6.0367,80.217,26.85,85,52,4.42,LK,1691166982
479,markovo,57.3206,107.0881,15.14,93,14,1.32,RU,1691166983
480,kabalo,-6.05,26.9167,28.89,35,39,1.79,CD,1691166983
481,tafi viejo,-26.732,-65.2592,17.91,52,0,1.03,AR,1691166983
482,safi,32.1667,-8.8333,31.86,25,0,9.08,MA,1691166983
483,salinas,36.6777,-121.6555,16.41,87,100,2.06,US,1691166755
484,marang,5.2056,103.2059,27.95,88,70,2.64,MY,1691166985
485,flying fish cove,-10.4217,105.6791,24.82,88,100,6.17,CX,1691166985
486,mitchell,43.7094,-98.0298,28.19,69,0,3.6,US,1691166976
487,pointe-noire,-4.7761,11.8635,24.04,73,75,4.12,CG,1691166986
488,pad idan,26.7748,68.302,33.3,56,99,7.93,PK,1691166986
489,arraial do cabo,-22.9661,-42.0278,24.98,65,75,4.63,BR,1691166986
490,lazaro cardenas,17.9583,-102.2,25.6,92,100,3.6,MX,1691166987
491,levis,46.8033,-71.1779,20.18,94,100,4.12,CA,1691166986
492,concepcion,-36.827,-73.0498,10.89,50,0,6.17,CL,1691166787
493,bhag,29.0415,67.8239,40.0,34,11,6.88,PK,1691166987
494,douz,33.4663,9.0203,45.47,8,0,6.8,TN,1691166987
495,al mindak,20.1588,41.2834,31.78,39,57,0.44,SA,1691166988
496,fada,9.5667,8.3,23.74,89,68,1.27,NG,1691166988
497,ed damer,17.5928,33.9592,37.36,28,8,3.08,SD,1691166989
498,ciudad lazaro cardenas,17.9583,-102.2,25.6,92,100,3.6,MX,1691166987
499,sola,-13.8833,167.55,22.88,89,100,4.61,VU,1691166989
500,ilha de mocambique,-15.0342,40.7358,24.48,76,37,5.39,MZ,1691166989
501,kuragino,53.8975,92.6725,18.28,87,100,0.5,RU,1691166989
502,azangaro,-14.9167,-70.2167,13.92,30,5,0.48,PE,1691166990
503,rechka-vydrino,51.485,104.8461,14.31,98,100,2.38,RU,1691166990
504,boca suno,-0.7167,-77.1333,24.77,53,85,0.34,EC,1691166990
505,bafia,4.75,11.2333,23.72,94,39,2.05,CM,1691166957
506,porto novo,6.4965,2.6036,26.9,77,66,4.86,BJ,1691166749
507,mogadishu,2.0371,45.3438,24.88,87,69,7.81,SO,1691166991
508,palpa,-14.5336,-75.1856,26.75,35,2,3.01,PE,1691166991
509,mbanza kongo,-6.267,14.2401,30.05,25,2,1.89,AO,1691166991
510,berezovo,63.9381,65.0419,22.71,62,95,3.94,RU,1691166992
511,coronel suarez,-37.4547,-61.9334,15.58,20,1,4.04,AR,1691166992
512,soio,-6.1349,12.3689,21.98,84,16,3.61,AO,1691166992
513,ust'-uda,54.1742,103.0304,17.53,85,100,0.63,RU,1691166806
514,magong,23.5654,119.5863,28.98,86,100,12.64,TW,1691166992
515,al artawiyah,26.5053,45.3444,35.34,8,0,4.37,SA,1691166993
516,ulsteinvik,62.3432,5.8487,14.5,92,100,2.24,NO,1691166993
517,tsiombe,-25.3,45.4833,20.0,56,0,8.05,MG,1691166993
518,biryusinsk,55.9634,97.8235,14.28,96,43,2.14,RU,1691166743
519,vermilion,40.1667,-87.7506,31.98,56,0,0.0,US,1691166993
520,sur,22.5667,59.5289,32.87,56,100,4.73,OM,1691166993
521,tukrah,32.5341,20.5791,28.1,69,0,4.96,LY,1691166994
522,la'ie,21.6477,-157.9253,24.5,77,21,5.37,US,1691166994
523,nizao,18.25,-70.2,34.09,59,99,6.01,DO,1691166994
524,quatre cocos,-20.2078,57.7625,21.16,82,76,9.72,MU,1691166994
525,holualoa,19.6228,-155.9522,21.54,75,0,2.57,US,1691166995
526,aldama,22.9167,-98.0667,32.66,47,97,3.85,MX,1691166995
527,umm kaddadah,13.6017,26.6876,31.88,43,89,4.07,SD,1691166995
528,talodi,10.6325,30.3797,27.57,61,87,0.73,SD,1691166995
529,bonnyville,54.2668,-110.735,16.89,50,7,5.31,CA,1691166996
530,sisimiut,66.9395,-53.6735,6.82,81,98,3.37,GL,1691166996
531,tazacorte,28.629,-17.9293,25.54,69,20,6.69,ES,1691166996
532,tuburan,6.6439,122.2736,27.66,82,30,2.37,PH,1691166996
533,nyurba,63.2842,118.3319,16.09,59,100,2.65,RU,1691166996
534,turpan,42.9333,89.1667,38.39,12,2,1.18,CN,1691166997
535,aljezur,37.3191,-8.8033,24.14,49,2,6.83,PT,1691166997
536,garoowe,8.4054,48.4845,31.09,31,21,9.41,SO,1691166997
537,ensisheim,47.867,7.3521,20.45,81,91,0.45,FR,1691166997
538,santiago,-33.4569,-70.6483,27.38,28,0,1.03,CL,1691166281
539,yuzhno-kurilsk,44.0306,145.8556,14.46,98,100,3.83,RU,1691166998
540,irymple,-34.25,142.1667,6.72,90,2,4.61,AU,1691166998
541,poronaysk,49.2167,143.1167,12.33,92,74,2.01,RU,1691166998
542,khandyga,62.6667,135.6,11.82,80,20,0.94,RU,1691166998
543,veseloyarsk,51.2836,81.1056,20.4,65,18,3.11,RU,1691166998
544,sabang,5.8933,95.3214,28.14,76,54,6.34,ID,1691166999
545,upper hutt,-41.1383,175.0502,10.96,93,84,4.88,NZ,1691166999
546,takoradi,4.8845,-1.7554,24.52,84,99,4.15,GH,1691166999
547,neyshabur,36.2133,58.7958,29.75,19,0,5.21,IR,1691166913
548,yurgamysh,55.3714,64.4656,19.1,78,51,2.02,RU,1691167000
549,cooper's town,26.8667,-77.5167,28.34,71,11,4.13,BS,1691167000
550,palermo,37.8167,13.5833,30.87,41,0,1.59,IT,1691166808
551,hohhot,40.8106,111.6522,21.62,83,20,2.0,CN,1691166955
552,kindu,-2.95,25.95,28.01,39,63,0.59,CD,1691167001
553,nar'yan-mar,67.6713,53.087,24.64,60,49,4.15,RU,1691167001
554,forster,-32.1667,152.5167,7.99,99,100,2.42,AU,1691167001
555,kapa'a,22.0752,-159.319,26.18,78,40,5.66,US,1691167001
556,ocean shores,46.9737,-124.1563,19.42,83,0,2.24,US,1691167001
557,morondava,-20.2833,44.2833,24.17,68,7,6.07,MG,1691167002
558,shar,49.5886,81.0453,23.86,51,25,2.54,KZ,1691167002
559,meadow lakes,61.6247,-149.6011,13.94,83,100,1.54,US,1691167002
560,bol'shoye boldino,55.0059,45.3142,22.92,74,58,2.21,RU,1691167002
561,natal,-5.795,-35.2094,30.36,58,20,8.75,BR,1691166920
562,seaside,36.6111,-121.8516,16.09,93,100,3.58,US,1691167003
563,fumel,44.4986,0.9651,22.55,44,88,6.29,FR,1691167003
564,kembe,4.6228,21.8865,22.5,93,100,1.83,CF,1691167003
565,al kawa,13.7463,32.4996,32.57,43,84,5.06,SD,1691167003
566,santa ana de yacuma,-13.75,-65.4333,32.97,46,40,2.06,BO,1691167003
567,shenjiamen,29.9576,122.298,26.39,94,99,6.99,CN,1691167003
568,nago,26.5881,127.9761,26.92,89,100,16.16,JP,1691167004
569,touros,-5.1989,-35.4608,28.76,53,7,8.21,BR,1691167004
570,baiti,13.745,-14.7482,35.88,43,79,0.85,SN,1691167004
571,vega de alatorre,20.0333,-96.6333,29.89,65,100,2.58,MX,1691167004
572,eyl,7.9803,49.8164,25.69,78,22,12.97,SO,1691167005
573,jinchang,38.4953,102.1739,27.44,45,29,1.79,CN,1691167005
574,el nido,11.1858,119.3956,27.37,83,66,3.67,PH,1691167005
575,hasanbeyli,37.1372,36.5593,23.35,80,0,3.52,TR,1691167005
576,wang sai phun,16.3885,100.538,27.12,86,100,1.29,TH,1691167005
